AREA,AREA_NAME,Employment,Automation Index,Race with the Machine,Race ahead of the Machine,Changing the Course of the Race,Race against the Machine,Running a Different Race,Lat,Long
11260,"Anchorage, AK",140960,0.03878602392955782,0.03222460279165887,0.014808757757545532,-0.001975193961267302,-0.003890855465423254,-0.0023812871929560775,62.212784,-149.678222
21820,"Fairbanks, AK",21830,0.03765524350463745,0.0404300609095416,0.006345172487476292,-0.01259582583073994,-0.00027254257733919096,0.0037483785156986887,64.676044,-146.548159
11500,"Anniston-Oxford-Jacksonville, AL",31360,0.03294528289681814,0.026704645198823304,0.0075302896590570545,-0.0028250696750825866,-0.002336567893325023,0.003871985607345363,33.771706,-85.822513
12220,"Auburn-Opelika, AL",44450,0.010651605483848803,0.0215849456722515,0.00480211439855005,-0.01480748672015661,-0.007163924937782368,0.006235957070986231,32.604064,-85.353048
13820,"Birmingham-Hoover, AL",452200,0.030323767580733962,0.027478300034716394,0.012979436807260797,-0.005166235467961092,-0.0048784718603189225,-8.926193296324159e-05,33.462372,-86.814338
19460,"Decatur, AL",42540,0.021951911498414967,0.02654759050871397,0.009511996578784876,-0.0058445807911320785,-0.008148143559336643,-0.00011495123861521295,34.489361,-87.097147
20020,"Dothan, AL",45310,0.021462271682664125,0.03204827220735115,0.007764561911944745,-0.011165143140956846,-0.00557762963963887,-0.001607789656036071,31.245528,-85.46919
22520,"Florence-Muscle Shoals, AL",41650,0.018521064216211136,0.02701953751781351,0.00950085042833064,-0.011422115782516687,-0.011592924938240684,0.005015716990824343,34.799254,-87.719388
23460,"Gadsden, AL",22500,0.022156974390542483,0.025101821692816176,0.004933123817733823,-0.008659923501142114,-0.006409504850101638,0.007191457231236126,34.047641,-86.034263
26620,"Huntsville, AL",198440,0.0449110263980278,0.030290722865315728,0.016838211650242185,0.001968204922564956,-0.006004562025069965,0.001818448984974963,34.783262,-86.734871
33660,"Mobile, AL",144300,0.023246444430351898,0.027740626520230655,0.011031034601308484,-0.008579838950016128,-0.006899379936704891,-4.599780446618018e-05,30.684572,-88.196568
33860,"Montgomery, AL",136670,0.023098708255642697,0.024856507889908744,0.009601162263871477,-0.00858682519694258,-0.004946306102818668,0.002174169401623696,32.365631,-86.404585
46220,"Tuscaloosa, AL",82280,0.02834505258084974,0.023536631932459556,0.01022931750637697,-0.005500468898448463,-0.005759464186495006,0.005839036226956723,33.160611,-87.715166
22220,"Fayetteville-Springdale-Rogers, AR-MO",216590,0.035460257471632395,0.031232864451559858,0.019652507870929092,-0.0026460811880994195,-0.008128614769965,-0.004650418892792191,36.197633,-94.119897
22900,"Fort Smith, AR-OK",88590,0.030089939862829707,0.033003218947385865,0.010782159668275643,-0.005879033604603179,-0.0030941798918328323,-0.004722225256395748,35.195534,-94.562533
26300,"Hot Springs, AR",28700,0.02398302338296876,0.03720627662165274,0.00846375302556994,-0.013170773880324518,-0.008039453080789238,-0.00047677930314023176,34.578852,-93.146932
27860,"Jonesboro, AR",44320,0.026779289039661425,0.0322651244770014,0.013406942145792633,-0.008057382213426556,-0.006809918103271612,-0.00402547726643443,35.69697,-90.650173
30780,"Little Rock-North Little Rock-Conway, AR",298890,0.03659272077589659,0.03130065438250845,0.01409255134007531,-0.005504136762664938,-0.0033942872090495235,9.79390250273049e-05,34.755773,-92.400589
38220,"Pine Bluff, AR",19510,0.038810903580156986,0.04026118501118357,0.013571373382121443,0.00021135052258978992,-0.011356166195431755,-0.00387683914030601,34.081208,-91.945729
22380,"Flagstaff, AZ",42680,0.018330340948505053,0.029435044222139856,0.00854181682869512,-0.008078940694104211,-0.00881026950112751,-0.0027573099070982154,35.829692,-111.773728
29420,"Lake Havasu City-Kingman, AZ",41300,0.01560919647317971,0.028548805821869902,0.006295226284395161,-0.008883173056993099,-0.01116036734157888,0.0008087047654866675,35.717705,-113.749689
38060,"Phoenix-Mesa-Scottsdale, AZ",1922410,0.02488363116951242,0.02828371403913682,0.015131981851231699,-0.00502232727446679,-0.007168099386523005,-0.006341638059866372,33.185765,-112.067862
39140,"Prescott, AZ",51940,0.01773816235471437,0.03470612479286016,0.009858361995984888,-0.00947550789780964,-0.008432924335705153,-0.00891789220061584,34.631071,-112.577225
46060,"Tucson, AZ",324250,0.027625751109651486,0.029695432667437016,0.014956086789320158,-0.005931698365970031,-0.0032991262246634956,-0.007794943756472189,32.128043,-111.783657
49740,"Yuma, AZ",49800,0.025775999737502442,0.0317945295498893,0.01508418153431873,-0.004487232665263144,-0.005979527891840572,-0.010635950789601889,32.773942,-113.910905
12540,"Bakersfield, CA",266800,0.03450795893813774,0.019755996438456325,0.008114840540367249,-0.0037747370177036166,0.007846152007267945,0.002565706969749809,35.346629,-118.729506
17020,"Chico, CA",59320,0.029914459630561774,0.0276653173896087,0.00912833282414921,-0.009837039683641774,0.0017510780674438592,0.0012067710330018327,39.665959,-121.601919
20940,"El Centro, CA",46090,0.020900636018515772,0.031167404790146583,0.010005349391564111,-0.0036411624084313476,0.002258639404931581,-0.018889595159695155,33.040814,-115.3554
23420,"Fresno, CA",328060,0.042877279620364195,0.027991090723930204,0.007060746826968847,-0.005751997198876854,0.01052007884231801,0.0030573604260240167,36.761006,-119.655019
25260,"Hanford-Corcoran, CA",26800,0.03546430202486328,0.026214872308013448,0.009169320821982727,-0.013098354679439456,0.005894123226052983,0.007284340348253621,36.072478,-119.81553
31080,"Los Angeles-Long Beach-Anaheim, CA",5243840,0.039727934202447135,0.027508914588246655,0.01052540098428878,-0.004070785402029431,0.004852235741784797,0.0009121682901563344,34.108705,-118.182745
31460,"Madera, CA",30350,0.03012236923163808,0.011890619031380806,0.0023775771827817954,-0.014558605020606914,0.013397445709135591,0.017015332328946753,37.209821,-119.749802
32900,"Merced, CA",53160,0.02256298995732675,0.021655198364663897,-0.0031142609389282205,-0.012655335057458333,0.009749602845419036,0.006927784743630483,37.194806,-120.722802
33700,"Modesto, CA",152310,0.03230048953338582,0.021226920786985015,0.0036019681764292155,-0.0077709955212870024,0.0033464019399294526,0.011896194151329115,37.562316,-121.002831
34900,"Napa, CA",57710,0.020263643952954102,0.029424721280934166,0.005439987122196677,-0.013144655408785011,0.0033773068298057485,-0.004833715871197478,38.5071,-122.325904
37100,"Oxnard-Thousand Oaks-Ventura, CA",257180,0.03158513850339978,0.02497668146899562,0.005834131313228838,-0.006831832760687773,0.0042041954585080865,0.0034019630233549786,34.358741,-119.133143
39820,"Redding, CA",51150,0.030487355133816008,0.032154006492588344,0.007096242146318571,-0.00465689511720524,-9.568233611381705e-06,-0.004096430154274258,40.760514,-122.043556
40140,"Riverside-San Bernardino-Ontario, CA",1354810,0.033899877345227036,0.02334961150666423,0.0023231269021598833,-0.007293963550595389,0.008484427802551861,0.007036674684446395,34.537534,-116.130921
40900,"Sacramento--Roseville--Arden-Arcade, CA",871400,0.04090470098914506,0.024115104059391324,0.007828065563864811,-0.007606083485860227,0.00891555430512217,0.00765206054662694,38.789678,-121.00575
41500,"Salinas, CA",145380,0.034379897973020046,0.015292324259029128,0.0006017359862122568,-0.010950082054236893,0.015865144971126705,0.013570774810888891,36.240107,-121.315572
41740,"San Diego-Carlsbad, CA",1235860,0.0390452636456492,0.02436528546115363,0.011955268791924961,-0.001657856261914864,-0.00020959136970147285,0.004592157024186916,33.023604,-116.776117
41860,"San Francisco-Oakland-Hayward, CA",2033050,0.03715235791120203,0.02142617249257528,0.014763835790374588,-0.0009873854750735295,-0.0006525616654052546,0.0026022967687309856,37.773718,-122.274432
41940,"San Jose-Sunnyvale-Santa Clara, CA",945520,0.042394844422079525,0.020770424614171862,0.02275115974685539,0.00560193412982804,-0.0033578494296445105,-0.003370824639131284,36.908472,-121.371372
42020,"San Luis Obispo-Paso Robles-Arroyo Grande, CA",87770,0.02826858295997159,0.02504324009309708,0.006710979453703456,-0.008482367693781134,0.001982524171547692,0.0030142069354044676,35.385224,-120.447544
42100,"Santa Cruz-Watsonville, CA",72130,0.03239080777009168,0.025807290570459662,0.00310885968284029,-0.0071002524977723525,0.003203598961558668,0.007371311053005369,37.012488,-122.007205
42200,"Santa Maria-Santa Barbara, CA",153290,0.030634223520521475,0.022023672557019522,0.0011163296516817633,-0.008600296898148535,0.00695665069081397,0.00913786751915481,34.537057,-120.039973
42220,"Santa Rosa, CA",169810,0.029516069532055822,0.023403831578081624,0.004080827207300089,-0.008655125584867002,0.006227040656951288,0.0044594956745898084,38.525182,-122.92611
44700,"Stockton-Lodi, CA",201890,0.03631532422838968,0.024192571070498728,0.004995321119854471,-0.006291777147023489,-0.00040425203766504547,0.013823461222725097,37.934982,-121.272244
46700,"Vallejo-Fairfield, CA",110940,0.030875784128183037,0.024793595378833605,0.0044709452206555395,-0.005896969402135868,-0.0012369676886134495,0.00874518061944321,38.267226,-121.939594
47300,"Visalia-Porterville, CA",127560,0.023324448986837998,0.017112534983978425,0.0026534619195481557,-0.011362083043119642,0.010697379999374604,0.00422315512705651,36.228834,-118.781055
49700,"Yuba City, CA",32870,0.027494985096337965,0.01781016605427206,0.0010086977988344459,-0.012147790362899855,0.007324532696417141,0.013499378909714213,39.160969,-121.511833
14500,"Boulder, CO",152330,0.03484168494857992,0.02121283356128459,0.01316244964983887,-0.0003508704482364511,-0.0030865270232602188,0.003903799208953146,40.09497,-105.397691
17820,"Colorado Springs, CO",236920,0.03741044444309222,0.026514671665622602,0.010726595742506354,-0.005246632078515404,-0.0002567938999674113,0.005672603013446076,38.845507,-104.638728
19740,"Denver-Aurora-Lakewood, CO",1285020,0.0376278780445089,0.023891629743162,0.013832158901543767,-0.0019983047729592446,8.950992527961832e-05,0.0018128842474827433,39.434749,-104.901209
22660,"Fort Collins, CO",128130,0.03272545552930661,0.022390061751515006,0.01668722643179489,-0.0009420838605769671,-0.010401545037762139,0.004991796244335794,40.658093,-105.486764
24300,"Grand Junction, CO",47340,0.03177677390033784,0.035103287369544114,0.011807384517810673,-0.0055900506695210905,-0.004857335560914375,-0.004686511756581496,39.019421,-108.461893
24540,"Greeley, CO",85630,0.028282695457188423,0.021971744594656187,0.0024634246473440313,-0.009969843938277462,-0.0037856009662180223,0.017602971119683675,40.555961,-104.383666
39380,"Pueblo, CO",45810,0.036108423846877624,0.0339226130432433,0.008597098642520257,-0.006205384899503383,-0.006352225792556648,0.006146322853174069,38.170658,-104.489892
71950,"Bridgeport-Stamford-Norwalk, CT",334740,0.025250451729336598,0.02510705791577625,0.009063363803841804,-0.009393402759846403,0.0010319507314854037,-0.00055851796192051,41.227413,-73.367061
73450,"Hartford-West Hartford-East Hartford, CT",495050,0.02864037062883984,0.02254347584361574,0.01273321601324863,-0.005744576293870041,-0.0015323429943934763,0.0006405980602389866,41.71865,-72.573919
75700,"New Haven, CT",229230,0.030928750763427437,0.024109253389795,0.009987320627179969,-0.006371151314957871,0.0017214393073188144,0.0014818887540915399,41.349717,-72.900204
76450,"Norwich-New London-Westerly, CT-RI",88490,0.027078817425075286,0.02550189732532296,0.010744316070518706,-0.005473210375147267,-0.007639951036711196,0.003945765441092056,41.472652,-72.108634
47900,"Washington-Arlington-Alexandria, DC-VA-MD-WV",2619830,0.03838289749631202,0.02674699567071878,0.017331573350828675,-0.001404099505921963,-0.0021583112270351784,-0.0021332607922782687,38.816928,-77.448228
20100,"Dover, DE",44770,0.02369726065525407,0.02694379235664482,0.00813292934417105,-0.008302534708640119,-0.01068268833156319,0.007605761994641552,39.097088,-75.502982
15980,"Cape Coral-Fort Myers, FL",231340,0.03735923075599912,0.03188188675342471,0.012114461295755038,-0.010002611579032053,-0.003743853932216601,0.007109348218067996,26.559035,-81.891994
18880,"Crestview-Fort Walton Beach-Destin, FL",89310,0.04202151701989093,0.04058734099280026,0.011267729337448601,-0.008368244743082495,-0.006881824207167597,0.005416515639892233,30.641097,-86.367692
19660,"Deltona-Daytona Beach-Ormond Beach, FL",165560,0.03888150292406817,0.03629047622088226,0.00971075521233633,-0.010686013216084062,-0.002382531281773931,0.005948815988707543,29.1789,-81.189023
23540,"Gainesville, FL",108470,0.04940637430917655,0.03600924203769734,0.01916284270131037,-0.007823425811437815,-0.0048569916346949404,0.006914707016301591,29.677957,-82.479869
27260,"Jacksonville, FL",612220,0.039919815400203174,0.030079488514049263,0.011893282796798632,-0.0079458835315524,-0.0018636858284105107,0.00775661344931812,30.234146,-81.756078
29460,"Lakeland-Winter Haven, FL",192010,0.04389295239772956,0.03355422838913577,0.013516638753688595,-0.006721938988139761,-0.009203941801838714,0.012747966044883707,27.953581,-81.69347
33100,"Miami-Fort Lauderdale-West Palm Beach, FL",2297210,0.0361321488189551,0.031232325373542424,0.016200708930202118,-0.005356040481667032,-0.00583814864537463,-0.00010669635774779307,26.101828,-80.478755
34940,"Naples-Immokalee-Marco Island, FL",123840,0.030075662797041325,0.03219915053345884,0.00851226849221963,-0.007361708800361327,-0.004311615070787533,0.001037567642511797,26.118786,-81.400955
35840,"North Port-Sarasota-Bradenton, FL",257770,0.03873416677348834,0.03353157280740893,0.008278676964584314,-0.008500216648628545,-0.00016284740171250423,0.00558698105183611,27.364247,-82.319344
36100,"Ocala, FL",83980,0.03457950712477176,0.03232316328056917,0.005746063440200677,-0.009478282720452536,-0.0002888926216075005,0.0062774557460619634,29.202805,-82.0431
36740,"Orlando-Kissimmee-Sanford, FL",1055690,0.0432040483112871,0.03225526376411428,0.014123573220224159,-0.004613796035148665,-0.0028071921881152595,0.0042461995502125205,28.434396,-81.356084
37340,"Palm Bay-Melbourne-Titusville, FL",187010,0.04394826971279303,0.033002828295986525,0.015286042320382165,-0.002269404972342459,-0.0036559308361272663,0.0015847349048940806,28.298678,-80.700534
37460,"Panama City, FL",62010,0.0324978464403714,0.03979540902643777,0.015037107900676486,-0.008277983193261285,-0.010009008808752426,-0.004047678484729159,30.101095,-85.474971
37860,"Pensacola-Ferry Pass-Brent, FL",148140,0.03656518103000528,0.03932322308143403,0.011546497715386503,-0.0101310891637304,-0.004551390210802225,0.0003779396077173841,30.655401,-87.161828
38940,"Port St. Lucie, FL",123580,0.038206722690072026,0.036590348209500856,0.010889728514292735,-0.008739601382957804,-0.0037791059527932103,0.0032453533020294634,27.232699,-80.42677
39460,"Punta Gorda, FL",36170,0.026028661609380166,0.040773414929208995,0.008524750536689343,-0.013594847699629667,-0.009713988385116085,3.9332228227592636e-05,26.868974,-81.941278
42680,"Sebastian-Vero Beach, FL",42740,0.02927131712095693,0.036816905956566684,0.012076215563064263,-0.009431378127690904,-0.005456645118118109,-0.004733781152865046,27.700528,-80.574789
45220,"Tallahassee, FL",141810,0.03866559568503347,0.033423994018397046,0.01982261081656969,-0.0067289071293935715,-0.007128725351716325,-0.000723376668823314,30.386425,-84.28041
45300,"Tampa-St. Petersburg-Clearwater, FL",1162840,0.04468835639897317,0.03258226117412466,0.01717838611867563,-0.003747793425654053,-0.004167118196002462,0.002842620727829398,28.125907,-82.465286
10500,"Albany, GA",46080,0.01902467762431448,0.02946750988260495,0.013706315046232126,-0.010774279548270163,-0.009198074559532046,-0.004176793196720374,31.589303,-84.174913
12020,"Athens-Clarke County, GA",63700,0.02305561174227,0.02996566686649671,0.011444681349958269,-0.007264652152523643,-0.006771421405769085,-0.004318662915892141,33.943984,-83.213897
12060,"Atlanta-Sandy Springs-Roswell, GA",2313350,0.027974333398921747,0.02287437607409215,0.009802231183317772,-0.004789604701477615,-0.0036027277206967523,0.003690058563686288,33.693728,-84.399911
12260,"Augusta-Richmond County, GA-SC",188140,0.02717959251071994,0.026017089578119296,0.009394187093269155,-0.006085555544979734,-0.0054692419503532125,0.00332311333466441,33.460371,-81.982833
15260,"Brunswick, GA",30570,0.01643174032065209,0.027506003161010567,0.005578873407966686,-0.008927701969761725,-0.006414231142960622,-0.0013112031356028037,31.301739,-81.588909
17980,"Columbus, GA-AL",86860,0.026894863992022733,0.0325917882838104,0.009133246575225629,-0.00799205008891396,-0.007222567587654188,0.00038444680955483646,32.436836,-84.900879
19140,"Dalton, GA",46130,0.047377235866663314,0.021125788554499578,0.0012567096546292345,-0.0037367834046087983,0.0035529732498668226,0.025178547812276436,34.796956,-84.856279
23580,"Gainesville, GA",67080,0.016505049818490825,0.020306813764904785,-0.002892337332667999,-0.011033661021467883,0.001437776415510142,0.008686457992211752,34.317569,-83.8185
25980,"Hinesville, GA",9140,0.024647958671767778,0.036469815158011384,0.008590177639867871,-0.0037794519605386656,-0.020765025060378153,0.004132442894805313,31.778788,-81.57648
31420,"Macon, GA",77180,0.025681737328116294,0.026435373656171837,0.012112556724173343,-0.011435274147984509,-0.0038613536200166193,0.00243043471577227,32.856216,-83.714305
40660,"Rome, GA",23750,0.022753324486050774,0.0325453951385415,0.010189303061029484,-0.003593444871137802,-0.014151988700116289,-0.002235940142266149,34.263692,-85.213685
42340,"Savannah, GA",138890,0.01942603530493614,0.024960651342039508,0.006104516828165499,-0.009455456342012142,-0.005310401788208019,0.00312672526495128,32.109153,-81.273107
46660,"Valdosta, GA",36750,0.016220813047061966,0.03434286016078432,0.013348168943631694,-0.013160252800066538,-0.013559645288854297,-0.004750317968433171,30.829645,-83.24064
47580,"Warner Robins, GA",49920,0.05210966353584717,0.040506119864340745,0.015086393345891541,0.00820973965943636,-0.008311927757927967,-0.003380661575893465,32.401594,-83.635095
46520,"Urban Honolulu, HI",357120,0.0387165479727542,0.025370340798161445,0.01300180464089376,-0.0026503663899807295,-0.0028518263649384146,0.005846595288618167,21.580023,-158.123406
11180,"Ames, IA",30110,0.03791129559046724,0.03469161030485693,0.01167785668059819,-0.007076405595299345,-0.009332179128796345,0.007950413329107842,42.037538,-93.466093
16300,"Cedar Rapids, IA",118890,0.03167918996431773,0.02518489757583145,0.013742616460618626,-0.0060386481596902825,-0.0044861313469817254,0.00327645543453961,42.086329,-91.631144
19340,"Davenport-Moline-Rock Island, IA-IL",147390,0.04057849983173567,0.02976503924773656,0.013393921439125336,-0.004230286663028146,-0.002903563935064399,0.0045533897429663045,41.39168,-90.460076
19780,"Des Moines-West Des Moines, IA",316860,0.03467633731543218,0.02693750334906292,0.01414715750210993,-0.005798304083071859,-0.003254450793674174,0.0026444313410053932,41.54486,-93.943487
20220,"Dubuque, IA",44210,0.02692050911989391,0.02984952428109504,0.014621507830534078,-0.0053169492550348,-0.010539163360109474,-0.0016944103765909602,42.463481,-90.878771
26980,"Iowa City, IA",67340,0.04117628996777206,0.03796560664011571,0.017715782898412732,-0.0005579319184710468,-0.010168362731528283,-0.0037788049207570368,41.517806,-91.64793
43580,"Sioux City, IA-NE-SD",67170,0.03209899785489201,0.017886856599094655,-0.0013788110427867817,-0.015364207447663411,0.0021710876456491057,0.028784072100598385,42.580634,-96.376047
47940,"Waterloo-Cedar Falls, IA",68740,0.028972994006028097,0.027605868535430622,0.01473460846702454,-0.008147395251975248,-0.0037546346401452907,-0.0014654531043064717,42.536796,-92.471608
14260,"Boise City, ID",296810,0.032205523601134156,0.021238522295634527,0.007842141573576641,-0.010306537590599685,0.006086960854818899,0.00734443646770383,43.006648,-116.141909
17660,"Coeur d'Alene, ID",49850,0.021435027364771986,0.028601993239211615,0.007407266639862076,-0.011272429096745307,-0.001378621261407434,-0.001923182156149006,47.675966,-116.695922
26820,"Idaho Falls, ID",56200,0.03217724286705015,0.025618335419188565,0.012787616161490531,-0.005011282236589892,-0.002760496458005385,0.0015430699809663717,43.620423,-112.420919
30300,"Lewiston, ID-WA",18500,0.04166841399661414,0.027225566540547183,0.00594451483093876,-0.010678441363515867,0.0075187883860984295,0.011657985602545662,46.251696,-116.925017
38540,"Pocatello, ID",26140,0.03153608743468789,0.026972938550993558,0.013361107752125387,-0.007000858214079961,0.0038009544828877806,-0.005598055137238878,42.692921,-112.228982
14010,"Bloomington, IL",65850,0.04782278751757829,0.03029354999330028,0.03825095879791776,0.008045751710345148,-0.020070740189480796,-0.008696732794504086,40.405593,-88.861307
16580,"Champaign-Urbana, IL",75070,0.04205721581296212,0.03385180932674772,0.0203232746426395,-0.0018068639439345058,-0.010217882086284533,-9.312212620608828e-05,40.234489,-88.298623
16980,"Chicago-Naperville-Elgin, IL-IN-WI",4012910,0.04597860375869944,0.02957627851631224,0.016476752206140408,-0.0013638269287064853,-0.0014629792253927076,0.002752379190345905,41.823521,-87.828297
19180,"Danville, IL",18370,0.048230574995617614,0.03162241855162684,0.015685845462371895,-0.002213544517108923,-0.003708432926051511,0.006844288424779257,40.186754,-87.726778
19500,"Decatur, IL",30380,0.058965038688044036,0.03330232948981525,0.006604594335036712,-0.003014691573450329,-5.202041096491472e-05,0.022124826847607304,39.860237,-88.961529
28100,"Kankakee, IL",32460,0.05902803068667578,0.040197019889156124,0.016602521615398658,0.002002218342946227,-0.007311575827627648,0.007537846666802447,41.13951,-87.861117
37900,"Peoria, IL",133740,0.0456880596119853,0.031685804530994344,0.01927956171899689,-0.0007153384878021418,-0.005234085923099402,0.0006721177728956501,40.788255,-89.514745
40420,"Rockford, IL",117170,0.03964819371495648,0.02783541893295141,0.009430970485502385,-0.003604747271052214,-0.0004808373076566619,0.006467388875211463,42.331183,-89.042914
44100,"Springfield, IL",79690,0.05060983635683286,0.030929346619991374,0.012830051552897168,-0.007070825928294611,0.0036313123470983893,0.01028995176514047,39.828565,-89.696205
14020,"Bloomington, IN",47400,0.0340211522807759,0.03671778355328305,0.023436225055510934,-0.00041966204295564025,-0.01184959550507575,-0.013863598779986705,39.241736,-86.671754
18020,"Columbus, IN",33600,0.024761314940699386,0.033402830466886455,0.015663444876906518,-0.007105751093597734,-0.007724627930191769,-0.00947458137930414,39.205843,-85.897999
21140,"Elkhart-Goshen, IN",111830,0.0262314058405807,0.015115016005267184,0.002049682179462546,-0.0013826587422381131,0.0005290905584308947,0.009920275839658127,41.600693,-85.863986
21780,"Evansville, IN-KY",126620,0.028216216057775634,0.02853750633983379,0.0076191705072959914,-0.00537097741492186,-0.0011844963718436463,-0.0013849870025886835,38.02007,-87.586166
23060,"Fort Wayne, IN",183760,0.02329956980124659,0.020702852709372,0.005433792756706982,-0.006996775011820916,-0.00018259969545084132,0.00434229904243931,41.006999,-85.216424
26900,"Indianapolis-Carmel-Anderson, IN",918400,0.03289605764155423,0.02293665153854413,0.010946429117341061,-0.005286456098380243,-0.0014181666555042327,0.005717599739553547,39.74867,-86.212382
29020,"Kokomo, IN",20920,0.029831401232766952,0.029971833182180455,-0.00011342797551913697,-0.013433207514699605,0.0019999512996702606,0.011406252241134937,40.483537,-86.114118
29200,"Lafayette-West Lafayette, IN",70940,0.015980706804159084,0.026516889751947867,0.006654925208777682,-0.009075113201208893,-0.005417413453091116,-0.0026985815022664283,40.514717,-86.930475
33140,"Michigan City-La Porte, IN",29730,0.022462492831007763,0.033664085964891094,0.007596235453107128,-0.008475786865697651,-0.01278625718810944,0.002464215466816591,41.549013,-86.744739
34620,"Muncie, IN",32310,0.026686680938827645,0.027731800563544615,0.006839546727317611,-0.015835519150341704,-0.004846009857424602,0.012796862655731725,40.227543,-85.399262
43780,"South Bend-Mishawaka, IN-MI",111220,0.02845985956843955,0.027673343962965502,0.005371122692355346,-0.007421117340546346,-0.0031554084570207946,0.005991918710685912,41.774981,-86.123014
45460,"Terre Haute, IN",52250,0.02945654541767101,0.033215057023375225,0.009909375609815321,-0.0071563198391557115,-0.0035413613877461753,-0.002970205988617622,39.392389,-87.347096
29940,"Lawrence, KS",32990,0.01688471456905355,0.029364609198527,0.005411120323924545,-0.012856314395714274,-0.0037603843184884217,-0.0012743162391953,38.896417,-95.290947
45820,"Topeka, KS",89140,0.033517495502334405,0.023989700227593225,0.009369063283705528,-0.0071756587773637165,0.0009714073869719064,0.0063629833814274755,39.041389,-95.802639
48620,"Wichita, KS",249410,0.023647360089936176,0.02908731361237514,0.008249932410301239,-0.00960567720629936,-0.0002087592165044283,-0.003875449509936346,37.629831,-97.398832
14540,"Bowling Green, KY",54440,0.022724718725329218,0.028919201133263475,0.006135462136349981,-0.010999105443122714,-0.006804645293259012,0.005473806192097461,37.046821,-86.397068
21060,"Elizabethtown-Fort Knox, KY",41130,0.04306959021542478,0.038590377259365205,0.02567204904056837,0.004102350976502647,-0.015670198938722957,-0.0096249881222885,37.73298,-85.972171
30460,"Lexington-Fayette, KY",223950,0.032118978735442394,0.02608310964689045,0.010985358602493375,-0.005333664901392976,-0.002316065844895465,0.002700241232346981,38.102876,-84.438545
31140,"Louisville/Jefferson County, KY-IN",548540,0.03343908711652116,0.02186386612993102,0.009937311210943517,-0.005021822376815657,0.0011772206094180226,0.0054825115430442994,38.33524,-85.668941
36980,"Owensboro, KY",34230,0.029803818644776436,0.028671560020370773,0.012530463767082292,-0.008737277111802486,-0.005791076953792815,0.003130148922918713,37.693723,-87.077058
10780,"Alexandria, LA",42710,0.035344867085934206,0.032072901520552075,0.01258609503403195,-0.002702153000271726,0.0015352019263416283,-0.008147178394719679,31.325348,-92.546803
12940,"Baton Rouge, LA",309720,0.037207389821095005,0.02648652793804543,0.007905141347312766,-0.006611999719217804,0.003592718515715465,0.005835001739239093,30.57089,-91.134533
26380,"Houma-Thibodaux, LA",61340,0.035154605218347845,0.0326096158144463,0.01015300168585792,-0.0043396727647295325,0.004233885008238847,-0.007502224525465645,29.33413,-90.843674
29180,"Lafayette, LA",153300,0.03819424838520863,0.03283057601800973,0.009154373263762339,-0.008908558292093569,0.0054652084051643735,-0.00034735100963420584,29.957773,-92.04935
29340,"Lake Charles, LA",77030,0.03223510133648372,0.022665758145158796,0.007383813694827518,-0.00949415656231975,0.0030078908898355794,0.008671795168981603,29.978755,-93.253243
33740,"Monroe, LA",55120,0.033983759765890076,0.03604288318093099,0.01326832733352265,-0.006203967437098806,-0.0011955695810875883,-0.007927913730377184,32.690477,-92.262793
35380,"New Orleans-Metairie, LA",438530,0.040961630888855516,0.03307106482663874,0.013398601170586957,-0.003857616009175613,0.001965172316880981,-0.0036155914160755503,29.805532,-89.701382
43340,"Shreveport-Bossier City, LA",130700,0.032818060805286375,0.029895698776245566,0.009873738854933312,-0.00928274040887142,0.0011211840545450324,0.0012101795284339828,32.490638,-93.671191
70900,"Barnstable Town, MA",80860,0.023343529036905675,0.02553773319549829,0.008030477290607657,-0.008415434639797381,-0.004129741440237783,0.0023204946308348906,41.799014,-70.21188
71650,"Boston-Cambridge-Nashua, MA-NH",2375520,0.02851890588845646,0.025265937647722267,0.013906119860275915,-0.005114323767969553,-0.004224266642017013,-0.0013145612095550874,42.517606,-71.021993
76600,"Pittsfield, MA",27550,0.023995749662856003,0.02607594231348287,0.005831646356284845,-0.009336621392850714,-0.002300123228558104,0.003724905614497079,42.371493,-73.217928
78100,"Springfield, MA-CT",274870,0.025033756324702672,0.025702298085251873,0.010768959412247106,-0.008711214987101118,-0.0009708600924450833,-0.0017554260932500787,42.2478,-72.632108
79600,"Worcester, MA-CT",237760,0.022689431457130427,0.021067837526023106,0.006052462068862716,-0.009056077125248307,-0.0008432885960940606,0.00546849758358689,42.217311,-71.925535
12580,"Baltimore-Columbia-Towson, MD",1110050,0.035844375241897375,0.0234878797476782,0.01445928862014724,-0.0033074331676788415,-0.001150098837060201,0.0023547388788109913,39.304361,-76.549501
19060,"Cumberland, MD-WV",23300,0.021271797761489797,0.03441891290595883,0.014129088237598314,-0.012155755482583297,-0.006800826210564048,-0.008319621688919962,39.532185,-78.807082
25180,"Hagerstown-Martinsburg, MD-WV",77660,0.02812859439770965,0.034556733644926854,0.011495183007343035,-0.006992498317931736,-0.014424595794249997,0.003493771857621522,39.542152,-77.899767
41540,"Salisbury, MD-DE",132470,0.025829351158244584,0.021084562837439536,-0.0016216485971427413,-0.01275300465004979,0.004009988225494296,0.015109453342503257,38.399521,-75.478262
70750,"Bangor, ME",49170,0.025785421333044567,0.027912321197714696,0.009548450453596757,-0.007615762869474033,0.000509607406702528,-0.00456919485549534,45.409284,-68.666616
74650,"Lewiston-Auburn, ME",37770,0.021265521242206875,0.018186959265910477,0.007062551225727992,-0.010645764490581452,-0.0025302520059618944,0.009192027247111753,44.167681,-70.207435
76750,"Portland-South Portland, ME",173640,0.02943509284005502,0.025743899903449108,0.014669033754563396,-0.005970895128364143,-0.00025129999420370197,-0.004755645695389651,43.651417,-70.418375
11460,"Ann Arbor, MI",177170,0.03520147677520824,0.027730657539937004,0.029814713231158987,-0.006329125914301334,-0.009797854198711334,-0.006216913882875014,42.252217,-83.843423
12980,"Battle Creek, MI",37010,0.0436408271949591,0.026164736919737086,0.0033977137669323615,-0.005363231117028466,0.006738977129677831,0.012702630495640285,42.24299,-85.012385
13020,"Bay City, MI",22270,0.03704533202304039,0.034893756800193396,0.01757648932548804,-0.004834588880521573,-0.012335416160430449,0.001745090938311017,43.699711,-83.978701
19820,"Detroit-Warren-Dearborn, MI",1622440,0.03968600280308787,0.022598553477095773,0.014142835726397698,-0.001385838575332421,-0.002391510434377603,0.0067219626093044105,42.721848,-83.200846
22420,"Flint, MI",100110,0.04067719182732987,0.02912387073882787,0.011364889776694101,-0.00580824290332542,-0.002660970345242153,0.008657644560375488,43.021077,-83.706372
24340,"Grand Rapids-Wyoming, MI",460380,0.044790965283161566,0.021754919059394556,0.00906604387453852,-0.006419944627562929,0.006305453366802841,0.014084493609988591,42.978632,-85.811208
27100,"Jackson, MI",35210,0.04133121264437423,0.023853100914740535,0.004488576616136372,-0.005788416544484004,0.0006794020369491477,0.018098549621032217,42.248474,-84.420868
28020,"Kalamazoo-Portage, MI",112600,0.04543973989461619,0.031614814314784134,0.016215810556828275,-0.004562841442224214,-0.0009871027913286312,0.003159059256556615,42.268871,-86.037373
29620,"Lansing-East Lansing, MI",162600,0.03547186315935874,0.025892905862399493,0.022830785643862678,-0.004192386926959696,-0.008123126920726045,-0.0009363144992177441,42.713659,-84.605372
33780,"Monroe, MI",27060,0.03453771538590089,0.02599727794880688,0.014085607155200713,-0.004712546382400498,-0.008688764176671526,0.007856140840965309,41.916097,-83.487106
34740,"Muskegon, MI",38160,0.03550372131097568,0.034232460220411126,0.0067946037056334785,-0.01555707744461346,-0.0028628989275040484,0.01289663375704854,43.289258,-86.751892
35660,"Niles-Benton Harbor, MI",42160,0.03818010704390484,0.03297383383157432,0.001611191875389495,-0.014649613915641985,0.0077360013346234185,0.010508693917959527,41.791382,-86.742543
40980,"Saginaw, MI",59640,0.03246710480074311,0.03492823322866098,0.007953529508125001,-0.010681629284111413,-0.0007150333396806763,0.0009820046877491578,43.328267,-84.05541
20260,"Duluth, MN-WI",101050,0.04035613691440404,0.031359713943425224,0.014701324964551996,-0.0031621393705929396,-0.0016280036499763811,-0.0009147589730037764,47.329703,-92.37627
33460,"Minneapolis-St. Paul-Bloomington, MN-WI",1693150,0.04621419257516207,0.027636205795400964,0.015783413668381152,-0.0014237831189822525,0.0012842326873417353,0.0029341235430205143,45.060982,-93.351369
40340,"Rochester, MN",82550,0.036182316278415505,0.03242656732353727,0.002712876233763248,-0.01014949519780374,0.0061033983339728315,0.005088969584945882,43.949636,-92.33607
41060,"St. Cloud, MN",83320,0.04422828501547105,0.02809718969796121,0.013694798635843664,-0.0018006530169786816,-0.0038763553550211216,0.00811330505366599,45.593031,-94.488363
17860,"Columbia, MO",66620,0.024208288439978354,0.026997065889009395,0.012917334230157937,-0.007356439854968672,-0.003337528305161208,-0.005012143519059098,38.989861,-92.310202
27620,"Jefferson City, MO",55910,0.034175603397839815,0.03214806890941596,0.018310415528265872,-0.00677628826316487,-0.002985688807765813,-0.00652090396891139,38.637121,-92.089227
27900,"Joplin, MO",64400,0.02974617377581118,0.02781680051216133,0.010188145050338035,-0.00784009117361753,-0.004788167926734685,0.004369487313664058,37.055546,-94.339736
28140,"Kansas City, MO-KS",926760,0.03177769740653391,0.02389401431902481,0.010376867448281216,-0.005805419440222254,-4.386767513245293e-05,0.003356102754582563,38.931849,-94.443824
41140,"St. Joseph, MO-KS",38490,0.024605530123845587,0.026411537689604386,0.01600363158061084,-0.0070862345385335895,-0.013422999642420386,0.0026995950345843067,39.834843,-94.783754
41180,"St. Louis, MO-IL",1187830,0.03540733507384475,0.026946114695694662,0.013451949297791713,-0.0038723198323633856,-0.0026598127005940664,0.0015414036133157977,38.740372,-90.345956
44180,"Springfield, MO",175150,0.028650872668444183,0.028691966537751856,0.009644918281158557,-0.009643895390530163,-0.001112898071477214,0.0010707813115411746,37.36087,-93.180262
25060,"Gulfport-Biloxi-Pascagoula, MS",124190,0.020316169035956677,0.021510603967717645,0.00782524168671439,-0.009190982540136727,-0.008642007032842236,0.008813312954503633,30.430245,-88.979736
25620,"Hattiesburg, MS",48030,0.019692343287261105,0.03169797780276326,0.009481091370185393,-0.012569267917782692,-0.0075813000459991065,-0.0013361579219057784,31.188441,-89.232741
27140,"Jackson, MS",221540,0.01766559023190023,0.026272570278487256,0.005852346036738676,-0.009788200059802618,-0.002448749390531052,-0.0022223766329919903,32.316001,-90.22084
13740,"Billings, MT",69450,0.02677144038767204,0.02992013065290111,0.010847028207432538,-0.004839225059722882,-0.0055946468856728215,-0.003561846527265919,45.775175,-108.726537
24500,"Great Falls, MT",24750,0.026599513166919497,0.02382436826004497,0.0067985989880631065,-0.01348485863318516,-0.00064118579733069,0.01010259034932727,47.316575,-111.350262
33540,"Missoula, MT",46780,0.01674116858196989,0.0270385999536861,0.008394479757010326,-0.012486556773480734,-0.0026491679835163595,-0.0035561863717293862,47.027263,-113.892691
11700,"Asheville, NC",157610,0.023182511267295258,0.02291791476141057,0.00835290690959016,-0.007855982700723907,-0.003170327520098992,0.0029379998171174815,35.595669,-82.681615
15500,"Burlington, NC",49150,0.02882973613571016,0.029035044086315562,0.004923907491083804,-0.006615746937318909,-0.0040266803231990556,0.005513211818828814,36.043954,-79.400573
16740,"Charlotte-Concord-Gastonia, NC-SC",1108480,0.027951409702390684,0.021245472972743498,0.011436430611548698,-0.0043023576026837845,-0.0032173561811500995,0.0027892199019323716,35.187295,-80.867491
20500,"Durham-Chapel Hill, NC",252640,0.040720616581773394,0.027591343321086564,0.016418966156500542,-0.0019308923147932089,-0.0018424232596366968,0.0004836226786161524,35.995536,-79.09699
22180,"Fayetteville, NC",100720,0.03736875557008973,0.03176256203628963,0.016701663105367054,-0.0019182972309026436,-0.0061734365302144045,-0.0030037358104498535,35.037956,-78.982209
24140,"Goldsboro, NC",30870,0.017151847695036138,0.024857761751712032,0.011966970037334226,-0.0036979506096690568,-0.013864397924118144,-0.002110535560222948,35.35419,-78.00867
24660,"Greensboro-High Point, NC",312860,0.027494180785333,0.022252716364849406,0.011084468209590415,-0.0053076384097847235,-0.004015016416254347,0.003479651036932249,36.025204,-79.792633
24780,"Greenville, NC",59420,0.028570178479567665,0.02646918708767118,0.015347639644571698,-0.002842495920158755,-0.0062835433264201435,-0.004120609006096371,35.59249,-77.372739
25860,"Hickory-Lenoir-Morganton, NC",126660,0.024094253611927297,0.017951244699172433,0.0063991617952685875,-0.004474602047751838,-0.0007315879994228142,0.004950037164660914,35.814611,-81.457066
27340,"Jacksonville, NC",37500,0.01808414379708967,0.028091584839099862,0.009866514666631548,-0.01065501155132749,-0.014743100381995555,0.00552415622468129,34.763109,-77.499469
39580,"Raleigh, NC",557250,0.026686384688991815,0.021791342850548776,0.01426425215991263,-0.0022798696155485326,-0.005130474436710025,-0.001958866269211032,35.756746,-78.460441
40580,"Rocky Mount, NC",40700,0.015594165593229736,0.023174593771642465,0.007204319052411812,-0.0055567586179718215,-0.006818571999592432,-0.002409416613260301,35.941045,-77.798549
48900,"Wilmington, NC",109160,0.023933294981987596,0.02561360948282712,0.0136355415098353,-0.003470162013207184,-0.009384151610430491,-0.0024615423870371633,34.426033,-77.889634
49180,"Winston-Salem, NC",224810,0.031101730305089503,0.02339994120928994,0.00828126199606731,-0.004369884180853684,-0.0007058989183089948,0.004496310198894959,36.078852,-80.345064
13900,"Bismarck, ND",54730,0.024583481123591266,0.027031114125823208,0.012682501464886559,-0.010693012542708921,-0.002907314184408122,-0.0015298077400014987,46.726594,-100.996096
22020,"Fargo, ND-MN",116120,0.026015784004060072,0.027602344014812444,0.012647972332411009,-0.007620894939808373,-0.005704785138203786,-0.0009088522651511804,46.914859,-96.960183
24220,"Grand Forks, ND-MN",35710,0.030469992540514412,0.024602271713855928,0.007944579896668844,-0.013126701584748768,-0.001261419116792048,0.012311261631530512,47.835929,-96.842681
30700,"Lincoln, NE",150990,0.028130338557945223,0.028064949688181726,0.013841676291905455,-0.009501245302956735,-0.005422082730720382,0.0011470406115351856,40.817458,-96.868743
36540,"Omaha-Council Bluffs, NE-IA",431290,0.0351494510454427,0.0283117223983579,0.01573235919885324,-0.006369949278984058,-0.003892722863481038,0.0013680415906967558,41.290459,-95.99997
74950,"Manchester, NH",93110,0.04598895595751096,0.02833174041143803,0.017617914773037077,-0.002587533092740693,-0.0023084360759897393,0.004935269941766365,42.911532,-71.723055
12100,"Atlantic City-Hammonton, NJ",93470,0.037768211572204224,0.03320132721135502,0.017052689363533324,-0.005582330057129395,-0.00816970715388983,0.0012662322083350774,39.469355,-74.633759
36140,"Ocean City, NJ",27430,0.03456214795421314,0.03437588399876314,0.002269962553612226,-0.011775383186897678,0.004502699282584177,0.005188985306151292,39.086141,-74.84771
45940,"Trenton, NJ",186260,0.047824388087545744,0.02374021349080878,0.016186151288541506,-0.0025576882506623544,0.003415054454327715,0.00704065710453014,40.282503,-74.703724
47220,"Vineland-Bridgeton, NJ",47400,0.040737673085828485,0.022907959326377833,0.0033468291627396646,-0.007503984160282057,0.0014898797495651317,0.020496989007427954,39.328434,-75.121628
10740,"Albuquerque, NM",330360,0.03037365244597323,0.02910369668363874,0.013182096307416041,-0.00409113723087913,-0.004777947548597852,-0.0030430557656046103,35.123496,-106.458392
22140,"Farmington, NM",35490,0.02659773736417559,0.03078009296727588,0.007697116408965421,-0.007366679420556008,-0.001609852368760989,-0.002902940222748729,36.511624,-108.324578
29740,"Las Cruces, NM",55810,0.02724741155802013,0.02666593802320788,0.012245006334907854,-0.0044341021870099445,-0.001994797493022421,-0.005234633120063267,32.349919,-106.834968
42140,"Santa Fe, NM",49000,0.02862049091733937,0.022676377328087888,0.011666334873712172,-0.00694823893765234,-0.0012692389947743105,0.002495256647966043,35.51453,-105.963972
16180,"Carson City, NV",20520,0.028761795347765406,0.03199340034819552,0.01274862808677911,-0.012917675755685143,-0.005443169783120511,0.0023806124515964727,39.15306,-119.747379
29820,"Las Vegas-Henderson-Paradise, NV",803310,0.033375811233365416,0.03168977289364361,0.013907957218288095,-0.00469463768636251,-0.0034946167148857676,-0.00403266447731794,36.214257,-115.013812
39900,"Reno, NV",189760,0.03620685738980334,0.025761025323573536,0.012241460880588445,-0.006032545682858839,-0.0020814477779384916,0.006318364646438646,40.500795,-119.731161
10580,"Albany-Schenectady-Troy, NY",376820,0.03695135830293894,0.026730342504700744,0.013287953191435636,-0.007933344105087309,0.0008561862198260828,0.004010220492063871,42.78792,-73.942348
13780,"Binghamton, NY",78630,0.02407006725017946,0.026081651217323254,0.007633692322740276,-0.009661092483403924,-0.0028098797327918423,0.002825695926311711,42.163928,-76.022943
15380,"Buffalo-Cheektowaga-Niagara Falls, NY",451840,0.035361721273079516,0.0301732969305797,0.012818580656006912,-0.006419232088630669,-0.002885849497290899,0.0016749252724144459,43.044371,-78.777335
21300,"Elmira, NY",25270,0.02199406525472347,0.037195250489246046,0.0012106812457736288,-0.013647341095698581,0.0013454766868717938,-0.004110002071469401,42.15528,-76.747179
24020,"Glens Falls, NY",38740,0.029831802207704705,0.030652999815908383,0.008441936690681079,-0.0053281670461649,-0.005633546322206431,0.0016985790694865749,43.44045,-73.636757
27060,"Ithaca, NY",33170,0.034936294082448915,0.0314579068328083,0.019206364571188475,-0.008478824045101502,-0.0025887729523735165,-0.004660380324072816,42.453006,-76.473483
28740,"Kingston, NY",45480,0.024342613470554053,0.031627835499204976,0.007405948732968098,-0.010785640451220685,-0.0022038415535827055,-0.001701688756815728,41.947212,-74.265458
35620,"New York-Newark-Jersey City, NY-NJ-PA",8114670,0.031824304400077386,0.02595172483487926,0.010733137255670933,-0.007009693192171776,0.0023981475786010176,-0.00024901207690207483,40.898788,-73.90313
40380,"Rochester, NY",431850,0.035243823468666446,0.028283758748674268,0.01268983946288263,-0.00516102492222166,-0.002772242608405223,0.002203492787736433,43.148038,-77.523257
45060,"Syracuse, NY",255290,0.030167587411002617,0.028762264346622823,0.01272148300148293,-0.007061047619446759,-0.003291410317704052,-0.000963701999952396,43.006516,-76.196134
46540,"Utica-Rome, NY",99720,0.030708694790400948,0.033354605204779564,0.004223197445518509,-0.009924664104908915,0.00542945276173093,-0.002373896516719168,43.33228,-75.173189
10420,"Akron, OH",277900,0.03543409541023457,0.02576883161953189,0.012111875398241961,-0.003964233546142587,-0.0018713078003284866,0.0033889297389318174,41.146639,-81.35011
15940,"Canton-Massillon, OH",137010,0.03263524495962011,0.02911614371489034,0.010375216804561313,-0.0052265889467005,-0.0024175333473679533,0.0007880067342368735,40.711072,-81.261474
17140,"Cincinnati, OH-KY-IN",940420,0.03576475902417181,0.02427625223767349,0.01189964406956387,-0.0040686452565132925,-0.002746082656463006,0.006403590629910749,39.069458,-84.427153
17460,"Cleveland-Elyria, OH",891900,0.034612734990230654,0.02706036050992594,0.015406496271902242,-0.003316222423195722,-0.0041208861871303015,-0.0004170131812714223,41.760392,-81.724217
18140,"Columbus, OH",933140,0.036273786867337066,0.027015512883483958,0.013134965221569206,-0.004573615492792532,-0.001599892220384716,0.0022968164754610804,39.968562,-82.835911
19380,"Dayton, OH",312420,0.03999928415519288,0.026139346044058293,0.01560989554487903,-0.0012366150734238607,-0.004111398152711984,0.003598055792391336,39.828854,-84.141813
30620,"Lima, OH",35460,0.03393264963441461,0.029664692105496965,0.01227591932746612,-0.004361082172550532,-0.010698659741633754,0.0070517801156357585,40.771627,-84.106103
31900,"Mansfield, OH",35830,0.028541557737592982,0.026785921514933142,0.008957636333231642,-0.004874551483808845,-0.008721720808248956,0.006394272181485999,40.774159,-82.542781
44220,"Springfield, OH",36070,0.029436271765783006,0.027029322335699657,0.0124984764935,-0.0031032557306466813,-0.011560676566745823,0.004572405233975882,39.917032,-83.783676
45780,"Toledo, OH",244630,0.036319914484620186,0.02448101941883693,0.00957277078759261,-0.0024470235242381316,-0.0028690643965774837,0.007582212199006219,41.544357,-83.690777
49660,"Youngstown-Warren-Boardman, OH-PA",171940,0.03633248147509799,0.03082798844477745,0.01063603615153473,-0.006473473429589205,-0.001494735071677522,0.0028366653800525887,41.23646,-80.561784
30020,"Lawton, OK",29720,0.02258197829058073,0.03449100756845154,0.012894441621472158,-0.012405418053780926,-0.011255399587454501,-0.001142653258107501,34.52911,-98.430917
36420,"Oklahoma City, OK",555200,0.023075535486705545,0.024835522549372574,0.0078283338138785,-0.010536160586158624,-0.00017375037637613888,0.0011215900859892075,35.430968,-97.506966
46140,"Tulsa, OK",389850,0.022400262190331366,0.024818178880695138,0.005126103782460881,-0.009719454437830843,-0.0005530449990476527,0.0027284789640538015,36.254429,-96.177329
13460,"Bend-Redmond, OR",66780,0.02903790305202536,0.02823144129982752,0.01205413685155203,-0.009068681266336642,-0.0029903588351862936,0.0008113650021687874,43.915118,-121.225575
18700,"Corvallis, OR",22490,0.08352315523306486,0.0481125680231671,0.031182730769479763,0.001662979426154898,0.004650214724795126,-0.002085337710532084,44.493882,-123.424664
21660,"Eugene, OR",126710,0.04660957165914559,0.034349401002172625,0.014573694098027876,-0.0030595817701067896,0.0005745289502629425,0.00017152937878896213,43.928329,-122.89769
32780,"Medford, OR",72350,0.0460326793930701,0.028413087902071463,0.0085306266040579,-0.0064074446015774805,0.0064224651983066094,0.00907394429021155,42.411628,-122.675685
38900,"Portland-Vancouver-Hillsboro, OR-WA",1007860,0.0427924009523879,0.0253493920898515,0.016171445696752995,-0.002072959772545041,0.001232735239799776,0.0021117876985287387,45.60062,-122.484346
41420,"Salem, OR",144890,0.03526004213196493,0.026742354370434054,0.014209281205800298,-0.006530842015096738,-0.0016622390702655393,0.0025014876410929254,44.903385,-122.901757
10900,"Allentown-Bethlehem-Easton, PA-NJ",311720,0.02404949888117458,0.01925018190716013,0.0027327268529907522,-0.011138036979999988,0.0027486362228174577,0.010455990878206256,40.789339,-75.398158
11020,"Altoona, PA",46120,0.017054162915430382,0.028489761238448957,0.009453958400281431,-0.011873593372844327,-0.007103193741709923,-0.001912769608745729,40.497922,-78.310636
21500,"Erie, PA",100080,0.017872710349715604,0.02167743448745907,0.00011727794286206517,-0.011850090340311939,0.0013849167657040556,0.006543171494002298,42.117952,-80.096386
25420,"Harrisburg-Carlisle, PA",276490,0.020200051810135178,0.022089855738753134,0.007225872105369527,-0.010682758496729491,-0.000819083349013483,0.0023861658117554224,40.335915,-77.05049
27780,"Johnstown, PA",38340,0.027248863668379752,0.03587431023827378,0.012108462733410916,-0.01333755904978988,-0.0026430580787643043,-0.0047532921747507895,40.510222,-78.710478
29540,"Lancaster, PA",208250,0.023437298001705575,0.02305895305506278,0.0071035233668174935,-0.0066574203648094715,-0.0018535698300302383,0.0017858117746650803,40.041992,-76.250198
30140,"Lebanon, PA",38770,0.03126535233977357,0.024941455827427586,0.0027660029210452297,-0.00848489488899204,-0.0010767962860222663,0.013119584766315098,40.371559,-76.46487
37980,"Philadelphia-Camden-Wilmington, PA-NJ-DE-MD",2475380,0.027866017442829794,0.024651016030228373,0.01143200124930635,-0.007971340451931902,0.0006006143374676087,-0.0008462737222406091,39.894936,-75.311955
38300,"Pittsburgh, PA",979190,0.024458793051160277,0.023426149250647343,0.012265268516974598,-0.0068175528023100285,-0.005413051794076459,0.0009979798799247125,40.434338,-79.828061
39740,"Reading, PA",143050,0.020629493822351075,0.02467052034038221,0.008319589080881637,-0.008090484128167569,-0.005282745637196634,0.001012614166451417,40.413957,-75.92686
42540,"Scranton--Wilkes-Barre--Hazleton, PA",214900,0.024584008848614947,0.02184353661923555,0.0032656152131890492,-0.011087759391629454,0.0016268000864593929,0.00893581632136041,41.322881,-75.898188
44300,"State College, PA",47030,0.020582294172790228,0.02120633381623896,0.017379596464575472,-0.003277805462807107,-0.01316235415909367,-0.001563476486123469,40.909128,-77.847877
48700,"Williamsport, PA",36530,0.018422466777957003,0.02962525988404506,0.003890939921418715,-0.014754382506416544,-0.003320674616564434,0.0029813240954742054,41.343882,-77.055262
49620,"York-Hanover, PA",150880,0.020401022679518488,0.02366996914890776,0.009875532959903954,-0.005383196691326322,-0.007959474239158312,0.0001981915011913804,39.921751,-76.728889
77200,"Providence-Warwick, RI-MA",470290,0.03477130875536666,0.02410972688122162,0.015079462627044113,-0.002893004825424275,-0.004471275358380877,0.0029463994309060354,41.706831,-71.286637
16700,"Charleston-North Charleston, SC",310220,0.019823520053238508,0.026290905433463588,0.010697304747350672,-0.007560991421395907,-0.0085767496727822,-0.0010269490333975895,33.021989,-80.012043
17900,"Columbia, SC",337330,0.026797993513026364,0.029116163238287765,0.009801143823923442,-0.01148822757143099,-0.0010745398343502965,0.00044345385659647074,34.077585,-81.037845
22500,"Florence, SC",72900,0.026262110462051513,0.03033691806403596,0.010147863946860708,-0.008179196791048698,-0.0031863314688518884,-0.0028571432889445414,34.154902,-79.80759
24860,"Greenville-Anderson-Mauldin, SC",357660,0.023748469044273746,0.026662011987380677,0.0023664589486443594,-0.011122152873320523,0.001474060212579703,0.004368090768989544,34.683709,-82.413423
34820,"Myrtle Beach-Conway-North Myrtle Beach, SC-NC",139490,0.01312459876044636,0.032799064870685415,0.00989705708881762,-0.009218384894024961,-0.015659762536891733,-0.004693375768139926,33.969095,-78.612724
43900,"Spartanburg, SC",133750,0.020092433658165043,0.023069827683644545,0.005812721438155519,-0.007831869346895587,-0.0034343345823539956,0.002476088465614479,34.83462,-81.842401
44940,"Sumter, SC",27180,0.01876703808844754,0.028057043785428087,0.003632188225240099,-0.007660464631746924,-0.00664562461647053,0.0013838953259967812,33.91614,-80.382376
39660,"Rapid City, SD",55180,0.014698807071123865,0.026892486235344612,0.008318157982896562,-0.010133247500279066,-0.007275141532644677,-0.0031034481141935244,44.195108,-102.916612
43620,"Sioux Falls, SD",137560,0.018539213365917462,0.022785068869787997,0.008566677677699738,-0.010893934450576168,-0.005083295454623882,0.0031646967236297896,43.49542,-96.995339
16860,"Chattanooga, TN-GA",207330,0.028595609281191314,0.02650883625930034,0.009710749973831603,-0.007448565715825167,-0.0038683908122774113,0.0036929795761619783,35.049361,-85.361158
17300,"Clarksville, TN-KY",68890,0.029256210402734628,0.03757851078932055,0.008426275943332284,-0.013608895496506929,-0.0018613424609915108,-0.0012783383724196962,36.749207,-87.558283
17420,"Cleveland, TN",27980,0.03397809913038785,0.030317341188129815,0.0073100530338194025,-0.006843821482130474,-0.005188994154631449,0.008383520545200557,35.138117,-84.655079
27180,"Jackson, TN",51040,0.027381509701669304,0.026540869154532715,0.008526732857060376,-0.007893383163370987,-0.003225180191340535,0.003432471044787763,35.610937,-88.853902
27740,"Johnson City, TN",58320,0.0359101183691512,0.03651583370567395,0.020496498329055618,-0.0011712945188932927,-0.010289125283180961,-0.009641793863504125,36.265822,-82.332693
28700,"Kingsport-Bristol-Bristol, TN-VA",91790,0.02476831343167435,0.029759435574193915,0.013691610882643215,-0.006125839990292578,-0.0066042410522529765,-0.005952651982617213,36.604161,-82.440145
28940,"Knoxville, TN",329960,0.02632438086590072,0.02563279855473022,0.014778089263173116,-0.003910902428188534,-0.006239109277258889,-0.0039364952465551495,36.044462,-84.136114
32820,"Memphis, TN-MS-AR",543370,0.03130858640984091,0.02064727987472109,0.006497090125938229,-0.00763463771116582,0.0012029501400240283,0.010595903980323354,35.008557,-89.821816
34100,"Morristown, TN",31460,0.018554738288744044,0.03350809509466096,0.008097241927189414,-0.004613872381190209,-0.007819036817341654,-0.010617689534574426,36.115484,-83.376546
34980,"Nashville-Davidson--Murfreesboro--Franklin, TN",864430,0.029192810567154837,0.024266957092206137,0.014900881401351332,-0.002728610260185921,-0.004589280790821354,-0.0026571368753953717,36.091577,-86.72298
10180,"Abilene, TX",54760,0.023285235698949136,0.03023531882237719,0.00831252709306507,-0.009709433110565227,-0.002505760005770963,-0.0030474171001570183,32.452022,-99.718743
11100,"Amarillo, TX",89850,0.0189702088858148,0.03139787778215321,0.007683558810316321,-0.011123190657223642,-0.00856944536138593,-0.0004185916880452001,35.247897,-101.908638
12420,"Austin-Round Rock, TX",922230,0.02578630526693504,0.023779670802785646,0.00734469721696808,-0.005490058267744638,-0.0017744761472880677,0.0019264716622140465,30.239513,-97.69127
13140,"Beaumont-Port Arthur, TX",131420,0.030645595073565568,0.027680334790646383,0.008017438605450775,-0.0064646349135079745,-0.003074620243308318,0.004487076834284759,30.347833,-94.120371
15180,"Brownsville-Harlingen, TX",119550,0.02467275770601607,0.03256438507842954,0.0041013781503284885,-0.009770104366431429,0.005376949389131178,-0.007599850545441766,26.102923,-97.478958
17780,"College Station-Bryan, TX",92350,0.02017905523526725,0.02841981475838759,0.027156323954041536,-0.007124277183026745,-0.01749844153857673,-0.010774364755558388,30.754392,-96.488537
18580,"Corpus Christi, TX",153890,0.028890293837689596,0.028656313122518137,0.005098839495457086,-0.01039477766569169,0.0027084059114771963,0.0028215129739289774,27.898931,-97.401236
19100,"Dallas-Fort Worth-Arlington, TX",3265540,0.028437303738951814,0.024547531884144755,0.010293294867885244,-0.005759161147796177,-0.0020696193167219212,0.0014252574514399124,32.822558,-97.025131
21340,"El Paso, TX",265190,0.033496547728951054,0.032093637271496944,0.0074548226613594115,-0.005362957930526074,-0.0016327218163233181,0.0009437675429440351,31.527394,-105.521333
26420,"Houston-The Woodlands-Sugar Land, TX",2693320,0.029981692039930785,0.026705573550425882,0.007053805786785133,-0.006569738531589583,0.0012494649604931768,0.0015425862738162044,29.749593,-95.353642
28660,"Killeen-Temple, TX",116430,0.035226624916888216,0.03181607860925138,0.015540553186720027,-0.003859312154164282,-0.006345925647355061,-0.0019247690775638232,31.20273,-97.789638
29700,"Laredo, TX",80710,0.018995029887167614,0.030875297658725112,0.009627318807817323,-0.009995933276349275,-0.00513417496852589,-0.006377478334499614,27.760799,-99.340752
30980,"Longview, TX",74320,0.017704625926312834,0.029443071235840376,0.009958979234928333,-0.007684596230360968,-0.00480020859754815,-0.009212619716546716,32.364601,-94.819897
31180,"Lubbock, TX",121930,0.025979625622403246,0.023926336196948644,0.005705235319443919,-0.01121441982333024,-0.0015477140833379532,0.009110188012678808,33.470327,-101.648825
32580,"McAllen-Edinburg-Mission, TX",228720,0.021122904954305743,0.030964020602824188,0.004974059675499645,-0.008246820120748094,0.005179609901301535,-0.011747965104571448,26.396384,-98.18099
33260,"Midland, TX",87300,0.02082218591033652,0.017586126503879182,-0.00044346524637536855,-0.016319592963874807,-0.003795261567142827,0.023794379183850314,32.092359,-101.994539
36220,"Odessa, TX",62160,0.02977984230267805,0.02571071445981815,0.0014681227322999313,-0.010995345121347352,-0.0006223327372206905,0.014218682969127983,31.865301,-102.542507
41660,"San Angelo, TX",33970,0.026951022686158843,0.030911971440411065,0.012051721712760699,-0.005673925829473805,-0.00900155293812438,-0.0013371916994147637,31.36531,-100.659418
41700,"San Antonio-New Braunfels, TX",904060,0.029682620385769853,0.027681604589205072,0.010401750180372898,-0.005833059004286947,-0.0019160632645527642,-0.0006516121149684195,29.43306,-98.606973
43300,"Sherman-Denison, TX",36650,0.022175769252185284,0.03665915637566304,0.003505814268234056,-0.016636994175766084,0.0006419549469912217,-0.001994162162936866,33.624524,-96.675693
45500,"Texarkana, TX-AR",43080,0.028651297113757246,0.027444308636700013,0.006806428643367765,-0.01330430691736384,0.00198068639098839,0.0057241803600649455,33.47837,-94.207169
46340,"Tyler, TX",80450,0.01976419446997557,0.030288522526775885,0.007313537978882012,-0.010289175937962317,-0.0035901211836779218,-0.003958568914042088,32.375105,-95.268939
47020,"Victoria, TX",27670,0.017584924668481494,0.037329070594925934,0.011600181935692622,-0.012088736538776707,-0.005871685339619542,-0.01338390598374084,28.731455,-97.196993
47380,"Waco, TX",95870,0.02652512499279014,0.029854869042074572,0.008267789799590114,-0.005453528740997873,-0.0032742314945081313,-0.0028697736133685703,31.427226,-97.093473
48660,"Wichita Falls, TX",42850,0.026721513920377138,0.03712356325178738,0.017546002303524003,-0.006231359963326369,-0.00828444468734639,-0.013432246984261459,33.776144,-98.501907
30860,"Logan, UT-ID",46500,0.029092684759004728,0.025425066885780126,0.012133910162729508,-0.00476134688895094,-0.005165887098344729,0.0014609416977907907,41.883617,-111.784324
36260,"Ogden-Clearfield, UT",224010,0.03640870303854876,0.026365450800616294,0.01135254306858488,-0.003373039703133504,-0.004778535385031951,0.006842284257513029,41.300466,-113.126808
39340,"Provo-Orem, UT",215030,0.023815287256917006,0.029581963458489804,0.021175491999400928,-0.007972988286412658,-0.009827532129788888,-0.009141647784772153,39.872067,-112.359059
41100,"St. George, UT",55320,0.019830732045786947,0.028610666495410608,0.01101275415404604,-0.009498489766576357,-0.00942862484352644,-0.0008655739935668483,37.262531,-113.4878
41620,"Salt Lake City, UT",653600,0.028552707903987784,0.024798564109588944,0.016522842744890243,-0.005458919020077058,-0.006874784492308855,-0.0004349954381054344,40.572887,-112.953253
13980,"Blacksburg-Christiansburg-Radford, VA",50080,0.031079190540672208,0.02948019237324445,0.012608879639063583,-0.007701170525920897,-0.00463442762053809,0.0013257166748232851,37.121364,-80.531517
16820,"Charlottesville, VA",87710,0.033384418090595,0.029817947997380814,0.017482629839620872,-0.004430770480116336,-0.007123904369797082,-0.0023614848964932517,37.85459,-78.578282
25500,"Harrisonburg, VA",48070,0.022740361163561373,0.03248645347552448,0.008552780245617883,-0.009635980074828507,-0.0048767287763907124,-0.0037861637063618253,38.507585,-78.885321
31340,"Lynchburg, VA",78810,0.032019996685582475,0.02897025629050852,0.009285512371884228,-0.005572034835074818,-0.002547414196774081,0.001883677055038599,37.364926,-79.216689
40060,"Richmond, VA",552180,0.03145040412880301,0.026720453724519963,0.014684788427335893,-0.005850249456115605,-0.0034894995129713807,-0.0006150890539658449,37.460057,-77.473869
40220,"Roanoke, VA",125270,0.033861134642505786,0.02876028660521708,0.013444826543626623,-0.005143919490842266,-0.004698339821988556,0.001498280806492891,37.286226,-79.946935
47260,"Virginia Beach-Norfolk-Newport News, VA-NC",642280,0.03721809379188318,0.029058165755070253,0.013715058672195315,-0.0050239146598171636,-0.003551998591826505,0.0030207826162612778,36.856081,-76.373791
49020,"Winchester, VA-WV",47550,0.026784566784038344,0.029093484202933284,0.012918208720378951,-0.007908380207046595,-0.009723968992118984,0.002405223059891673,39.272974,-78.471828
72400,"Burlington-South Burlington, VT",94320,0.024317380398956312,0.025264788693681123,0.012415584300833116,-0.005773936887223066,-0.0075083473948243246,-8.070831351060515e-05,44.689117,-73.041171
13380,"Bellingham, WA",68230,0.027012125646929452,0.027982896572977922,0.012131065168276736,-0.00843152194388462,-0.009198144514408535,0.004527830363968061,48.842653,-121.836432
14740,"Bremerton-Silverdale, WA",68250,0.04267940491853922,0.026928432125302465,0.011746104849933409,-0.006418568191593962,-0.0029673985594436264,0.01339083469434095,47.639687,-122.649636
28420,"Kennewick-Richland, WA",97250,0.03179679011846687,0.02507866197948866,0.0037365468721955175,-0.013420425331551342,0.0011821051974595653,0.015219901400874425,46.363964,-119.254046
31020,"Longview, WA",29060,0.036338376207604994,0.025494722246598933,0.0023808467275788503,-0.009993802886955755,-0.000305168692968219,0.0187617788133512,46.196785,-122.67846
34580,"Mount Vernon-Anacortes, WA",37920,0.022194430437105506,0.027125740515696703,0.011363131235077706,-0.010365641128680325,-0.013666129412017877,0.007737329227029355,48.493292,-121.81577
36500,"Olympia-Tumwater, WA",94180,0.04276665187478479,0.03583665683573459,0.018646718203111964,-0.006130361142099264,-0.006165262347610459,0.0005789003256478908,46.935822,-122.830152
42660,"Seattle-Tacoma-Bellevue, WA",1678420,0.03646550358942846,0.021752309123116792,0.021614091721124842,-0.0006267517945081347,-0.00635804134364093,8.389588333590492e-05,47.490599,-121.833996
44060,"Spokane-Spokane Valley, WA",206260,0.034365410629073945,0.0278813161106974,0.01268524310289565,-0.007549662255082051,-0.001668383603097831,0.003016897273660807,48.189041,-117.573219
48300,"Wenatchee, WA",36500,0.027433335820410965,0.022463076682333688,0.004945316503124811,-0.013555830114556008,-0.0012718770690406667,0.014852649818549127,47.76611,-120.270197
49420,"Yakima, WA",79250,0.03165886771558751,0.023258292307065748,0.004752661233419331,-0.01058042979517454,-0.002635547144920758,0.01686389111519772,46.456558,-120.740145
11540,"Appleton, WI",100110,0.035374248163304034,0.025604854077718966,0.010644222492638813,-0.003290795010973277,-0.006438852531050698,0.008854819134970299,44.290603,-88.372326
20740,"Eau Claire, WI",65870,0.033138008641151906,0.026856350153986963,0.014950062271117837,-0.0036866091497529674,-0.010107774144176032,0.005125979509976078,44.938672,-91.284322
22540,"Fond du Lac, WI",30350,0.025462460404619136,0.04119004782531066,0.015553182857637515,-0.007561894055855584,-0.014713576507682263,-0.009005299714791248,43.754722,-88.493284
24580,"Green Bay, WI",142080,0.035071267772584847,0.024361340812154922,0.013503194058910845,-0.003913294351943208,-0.006403649270412759,0.007523676523874978,44.474024,-87.99613
27500,"Janesville-Beloit, WI",53590,0.025375853043171026,0.02459346728071575,0.013720324756339483,-0.003773579431339366,-0.01560637386326677,0.006442014300721999,42.66988,-89.075284
29100,"La Crosse-Onalaska, WI-MN",59230,0.0354288312529647,0.02009868459131217,0.011158006042256086,-0.007862595019589774,-0.0036830279943947525,0.01571776363338094,43.783246,-91.318743
31540,"Madison, WI",340750,0.03881316193003781,0.02495244195283927,0.023195943029854685,-0.00099530117498918,-0.008313561278980336,-2.636059868667273e-05,43.084294,-89.59718
33340,"Milwaukee-Waukesha-West Allis, WI",721270,0.03397374328791747,0.025969246774386806,0.010911829543161417,-0.004360159145573292,-0.0011576310347451435,0.002610457150687709,43.01766,-87.481554
36780,"Oshkosh-Neenah, WI",70660,0.03499362937099004,0.025198605899220627,0.011802868172052547,-0.005582587987943019,-0.005076628271929465,0.008651371559589366,44.085707,-88.668149
39540,"Racine, WI",59280,0.028388079169967495,0.025275354283367607,0.0038694200293563213,-0.0086358255106644,0.0005744891640077354,0.007304641203900217,42.754122,-87.420877
43100,"Sheboygan, WI",46000,0.026181359321173103,0.023329082283501973,0.007338520370501533,-0.0027375081877863416,-0.006182948314347125,0.0044342131693031195,43.741232,-87.731516
48140,"Wausau, WI",58180,0.029429065157424217,0.0199784906726658,0.008131023749799682,-0.004900069477676183,-0.005063375742231549,0.01128299595486651,44.898036,-89.757823
16620,"Charleston, WV",86470,0.03109652128798074,0.0332528057520686,0.01976712254824277,-0.003721928017289225,-0.005436563211175055,-0.012764915783866349,38.283213,-81.492557
26580,"Huntington-Ashland, WV-KY-OH",105090,0.0260218951460941,0.027093150095311685,0.010995980998708327,-0.007675093141966849,-0.006246834198680384,0.0018546913927213748,38.373691,-82.385193
34060,"Morgantown, WV",44560,0.030696020543507063,0.03199482035524309,0.02269056660407713,0.0026216707162166064,-0.017671062040251928,-0.008939975091777866,39.525155,-79.801912
37620,"Parkersburg-Vienna, WV",25540,0.026994989243062484,0.03836522447971541,0.012272056179856189,-0.0068893745637400305,-0.0030420624578133826,-0.013710854394955715,39.141531,-81.460402
48260,"Weirton-Steubenville, WV-OH",25920,0.03566112650735381,0.028861595863682477,0.013105269528582916,-0.0027487967354809933,-0.004761837160634011,0.001204895011203369,40.388914,-80.701966
48540,"Wheeling, WV-OH",44930,0.024660687986842067,0.02267392790555013,0.005595665835522637,-0.006994108246981046,-0.004472090878870183,0.007857293371620555,39.975509,-80.847011
16220,"Casper, WY",28390,0.03589709786775741,0.032704063795190336,0.006900838717222302,-0.008470587163742882,-0.0007672313122558949,0.005530013831343564,42.977645,-106.768219
16940,"Cheyenne, WY",36090,0.035309182080920765,0.022669546272519228,0.009997123699017521,-0.007601841904002246,0.0032143419126480083,0.007030012100738212,41.29283,-104.660395
