AREA,AREA_NAME,Employment,Automation Index,Race with the Machine,Race against the Machine,Race ahead of the Machine,Running a Different Race,Lat,Long
11260,"Anchorage, AK",140960,0.001994512111512581,0.02356760472464786,-0.01982814397684113,0.008062763292502065,-0.009807711928796203,62.212784,-149.678222
21820,"Fairbanks, AK",21830,0.0011451948121756206,0.032490376760569886,-0.027438451439802447,-1.2271357638884983e-05,-0.0038944591509528503,64.676044,-146.548159
11500,"Anniston-Oxford-Jacksonville, AL",31360,0.006098461256303533,0.021101980119326,-0.01573459031936908,0.003868179490165019,-0.003137108033818392,33.771706,-85.822513
12220,"Auburn-Opelika, AL",44450,0.0028101749391630237,0.019959382497676648,-0.025568072557366095,0.003915089102713723,0.004503775896138748,32.604064,-85.353048
13820,"Birmingham-Hoover, AL",452200,0.002095060377028668,0.021134036127076927,-0.020812314633970846,0.0080388742246333,-0.006265535340710712,33.462372,-86.814338
19460,"Decatur, AL",42540,0.0035612708316845043,0.022863356596983644,-0.021405317572630644,0.007126306111343281,-0.00502307430401186,34.489361,-87.097147
20020,"Dothan, AL",45310,0.0015748631970016191,0.027531934848780998,-0.0247630398642891,0.004885030752556099,-0.006079062540046323,31.245528,-85.46919
22520,"Florence-Muscle Shoals, AL",41650,0.002646078927013684,0.023533546405262284,-0.029709666071090185,0.007377407176745801,0.001444791416095756,34.799254,-87.719388
23460,"Gadsden, AL",22500,0.006976350919038032,0.021499727157645823,-0.021516425112921123,0.0028466078647857718,0.004146441009527602,34.047641,-86.034263
26620,"Huntsville, AL",198440,0.0012492815071948327,0.020925317396229992,-0.020402566145343554,0.007911793417162638,-0.007185263160854258,34.783262,-86.734871
33660,"Mobile, AL",144300,0.003000514613520855,0.023437687281500835,-0.023486617776411534,0.007932266346358643,-0.004882821237927132,30.684572,-88.196568
33860,"Montgomery, AL",136670,0.0019730954996022287,0.02026392403211122,-0.02198440883083677,0.006091220136383968,-0.002397639838056173,32.365631,-86.404585
46220,"Tuscaloosa, AL",82280,0.0033521533382240842,0.018295631508487994,-0.02131881234822844,0.0067569249428950234,-0.00038159076493043953,33.160611,-87.715166
22220,"Fayetteville-Springdale-Rogers, AR-MO",216590,0.00217983963640922,0.024404055939474603,-0.02361677068168458,0.014544232748775032,-0.013151678370155823,36.197633,-94.119897
22900,"Fort Smith, AR-OK",88590,0.0039353523659094725,0.027634889650353545,-0.01925945104574109,0.0071882143938470505,-0.011628300632550076,35.195534,-94.562533
26300,"Hot Springs, AR",28700,0.0013583379453800948,0.03175597599119255,-0.030831596470927092,0.0051694969050049555,-0.004735538479890264,34.578852,-93.146932
27860,"Jonesboro, AR",44320,0.003030904684704905,0.02694334392306652,-0.024520386037891195,0.010105875859030805,-0.009497929059501184,35.69697,-90.650173
30780,"Little Rock-North Little Rock-Conway, AR",298890,0.00159339746763848,0.02325005613981687,-0.0223165657717824,0.007799452815822797,-0.00713954571621879,34.755773,-92.400589
38220,"Pine Bluff, AR",19510,0.003682797474406363,0.03226438790080127,-0.025091580466444247,0.008611229263619236,-0.012101239223569898,34.081208,-91.945729
22380,"Flagstaff, AZ",42680,0.0037572417270593794,0.0259920056760284,-0.0232188661840097,0.006435119947886911,-0.005451017712846201,35.829692,-111.773728
29420,"Lake Havasu City-Kingman, AZ",41300,0.00399328311118663,0.026042311806851556,-0.0251502857559949,0.004790841191484027,-0.0016895841311539844,35.717705,-113.749689
38060,"Phoenix-Mesa-Scottsdale, AZ",1922410,0.0016014474037464588,0.023179377481729768,-0.02131802489565804,0.01102854559589414,-0.011288450778219439,33.185765,-112.067862
39140,"Prescott, AZ",51940,0.0031752831174928775,0.031481132020951735,-0.024035500120350023,0.007815257447235713,-0.012085606230344631,34.631071,-112.577225
46060,"Tucson, AZ",324250,0.0011206945492334697,0.023471789081387667,-0.019462031161446153,0.01004674001314211,-0.01293580338385017,32.128043,-111.783657
49740,"Yuma, AZ",49800,0.004980322774443768,0.027867039657584677,-0.01898232535958827,0.012421894870850284,-0.01632628639440295,32.773942,-113.910905
12540,"Bakersfield, CA",266800,0.004612436154311672,0.01378920989554741,-0.007423237447726827,0.003960039757971753,-0.005713576051480734,35.346629,-118.729506
17020,"Chico, CA",59320,0.00021706938809767928,0.020121414895552026,-0.019988762436478097,0.004199388409494367,-0.004114971480470575,39.665959,-121.601919
20940,"El Centro, CA",46090,0.003961703294500185,0.0277318627149042,-0.008143024067755245,0.007924487277896408,-0.023551622630545194,33.040814,-115.3554
23420,"Fresno, CA",328060,0.002683449681053829,0.01936803304383844,-0.01073730063325637,0.0007094317683962459,-0.00665671449792446,36.761006,-119.655019
25260,"Hanford-Corcoran, CA",26800,0.0030554407586209087,0.018478077700769563,-0.020269927688305572,0.004693737516653834,0.0001535532295030423,36.072478,-119.81553
31080,"Los Angeles-Long Beach-Anaheim, CA",5243840,0.0005105491122945338,0.017605348317102948,-0.013999179809754958,0.002561150002517165,-0.005656769397570538,34.108705,-118.182745
31460,"Madera, CA",30350,0.006081413428179583,0.0075052358595873725,-0.010976266811529689,-0.0005705411114868136,0.010122985491608727,37.209821,-119.749802
32900,"Merced, CA",53160,0.00378736035182764,0.017596815046917777,-0.01055156547557426,-0.005685085885692345,0.0024271966661764954,37.194806,-120.722802
33700,"Modesto, CA",152310,0.004523469611801723,0.015082692665087646,-0.015532498656948834,-0.0005034638616881054,0.005476739465351099,37.562316,-121.002831
34900,"Napa, CA",57710,0.0013628778347690162,0.025317673073801422,-0.017493376560744733,0.0027221854892677116,-0.009183604167555356,38.5071,-122.325904
37100,"Oxnard-Thousand Oaks-Ventura, CA",257180,0.0017860435564475696,0.018250946709744906,-0.014116251456052165,0.0004319980962530501,-0.0027806497934982632,34.358741,-119.133143
39820,"Redding, CA",51150,0.002607285694383177,0.025472399046933103,-0.015755611374257933,0.0027016267461117405,-0.009811128724403734,40.760514,-122.043556
40140,"Riverside-San Bernardino-Ontario, CA",1354810,0.0037318258845725483,0.016657202922980646,-0.010674816936579873,-0.002315561053146134,6.500095131792283e-05,34.537534,-116.130921
40900,"Sacramento--Roseville--Arden-Arcade, CA",871400,-7.28272370854599e-05,0.01432643121003549,-0.014057731600231632,-0.00042762748420234475,8.61006373130413e-05,38.789678,-121.00575
41500,"Salinas, CA",145380,0.004980735030057026,0.009526739044211224,-0.006927694583874711,-0.003304115907087138,0.005685806476807637,36.240107,-121.315572
41740,"San Diego-Carlsbad, CA",1235860,0.00204625776382944,0.015598849864571218,-0.015913822438566677,0.004794328222328198,-0.0024330978845032297,33.023604,-116.776117
41860,"San Francisco-Oakland-Hayward, CA",2033050,0.0009600297811968583,0.0124713461369471,-0.014469165773532494,0.005326693798676174,-0.0023688443808939363,37.773718,-122.274432
41940,"San Jose-Sunnyvale-Santa Clara, CA",945520,0.0008026416007554937,0.011528050168194665,-0.012667755839296607,0.013021234579621649,-0.01107888730776424,36.908472,-121.371372
42020,"San Luis Obispo-Paso Robles-Arroyo Grande, CA",87770,0.0030134774177706936,0.0190305591099435,-0.01666617138434029,0.0027527444434487375,-0.002103654751281256,35.385224,-120.447544
42100,"Santa Cruz-Watsonville, CA",72130,0.0026464746238898385,0.018361101540984123,-0.015603925807428753,-0.0022253410281872638,0.0021146399185218018,37.012488,-122.007205
42200,"Santa Maria-Santa Barbara, CA",153290,0.0021956736922410514,0.01570979776414927,-0.012854339399776565,-0.003893902751005915,0.0032341180788742485,34.537057,-120.039973
42220,"Santa Rosa, CA",169810,0.0021241734706106685,0.01705538389966868,-0.013061183879825078,-0.0005259209985317703,-0.0013441055507011912,38.525182,-122.92611
44700,"Stockton-Lodi, CA",201890,0.004410079137369571,0.017430097960835167,-0.019242728252495817,0.00026185461345873406,0.005960854815571501,37.934982,-121.272244
46700,"Vallejo-Fairfield, CA",110940,0.004062399581459375,0.018333127147094216,-0.017793793819479042,0.00016724626136840892,0.0033558199924757504,38.267226,-121.939594
47300,"Visalia-Porterville, CA",127560,0.004029582462368897,0.013430601350516033,-0.008424681755250435,0.0002892308551878525,-0.0012655679880845538,36.228834,-118.781055
49700,"Yuba City, CA",32870,0.00407520237368908,0.012096391006576765,-0.014079439559401219,-0.002584355624741186,0.008642606551254761,39.160969,-121.511833
14500,"Boulder, CO",152330,-0.00046902758921846255,0.013084156169184874,-0.016411483344646705,0.004821703357328316,-0.001963403771084976,40.09497,-105.397691
17820,"Colorado Springs, CO",236920,0.0012697908667584357,0.01792184891872034,-0.01931629190210915,0.003362482205745962,-0.0006982483555987157,38.845507,-104.638728
19740,"Denver-Aurora-Lakewood, CO",1285020,0.001445880315696424,0.015571358722950013,-0.0153745601484164,0.006442842387595946,-0.005193760646433163,39.434749,-104.901209
22660,"Fort Collins, CO",128130,0.0034742896638203513,0.015560570143029251,-0.02296050775278055,0.011562977015362505,-0.0006887497417909505,40.658093,-105.486764
24300,"Grand Junction, CO",47340,0.0023653691984382164,0.028564483648356384,-0.022253801826732644,0.007215697479331706,-0.011161010102517244,39.019421,-108.461893
24540,"Greeley, CO",85630,0.004120625992157123,0.016944813545728188,-0.023192281232777973,-0.0012883537631305092,0.011656447442337375,40.555961,-104.383666
39380,"Pueblo, CO",45810,0.0014556488166311832,0.025665711709953354,-0.026789371334497797,0.00320544057632155,-0.0006261321351458543,38.170658,-104.489892
71950,"Bridgeport-Stamford-Norwalk, CT",334740,-0.0002575000451284226,0.018836465959470694,-0.017807135838593308,0.0037026180159023814,-0.004989448181908107,41.227413,-73.367061
73450,"Hartford-West Hartford-East Hartford, CT",495050,0.0003042847236555679,0.015773104637024166,-0.017739857131586018,0.0068388105815513495,-0.004567773363333971,41.71865,-72.573919
75700,"New Haven, CT",229230,0.001973092782779573,0.01718869289971872,-0.015534484829531292,0.004561715510085607,-0.004242830797493505,41.349717,-72.900204
76450,"Norwich-New London-Westerly, CT-RI",88490,0.002438091293087641,0.019375238721961188,-0.02300494858368929,0.006610762610562551,-0.000542961455746796,41.472652,-72.108634
47900,"Washington-Arlington-Alexandria, DC-VA-MD-WV",2619830,-0.000827321706345252,0.01866458262364562,-0.01992653657357979,0.008950612114489151,-0.008515979870900303,38.816928,-77.448228
20100,"Dover, DE",44770,0.003885849881681669,0.0224671411603857,-0.027200400225397436,0.00490486034443241,0.0037142486022609805,39.097088,-75.502982
15980,"Cape Coral-Fort Myers, FL",231340,0.0022607790318291965,0.024001619582307968,-0.02810648953152789,0.006412451005611955,-4.6802024562808686e-05,26.559035,-81.891994
18880,"Crestview-Fort Walton Beach-Destin, FL",89310,0.0011649521260364004,0.03135172172877704,-0.03233888910147223,0.004027710610696525,-0.0018755911119648638,30.641097,-86.367692
19660,"Deltona-Daytona Beach-Ormond Beach, FL",165560,0.0004971518518464002,0.027581634510088354,-0.028798489873663458,0.003177770732615881,-0.001463763517194419,29.1789,-81.189023
23540,"Gainesville, FL",108470,-0.00033614515531182887,0.024446413940806946,-0.0328615144017258,0.009390100529561365,-0.001311145223954313,29.677957,-82.479869
27260,"Jacksonville, FL",612220,0.002005983616357232,0.021586713674771676,-0.02467954036195219,0.0047762663520264925,0.0003225439515112255,30.234146,-81.756078
29460,"Lakeland-Winter Haven, FL",192010,0.0028453109594647197,0.025137078335128682,-0.03228086371531147,0.007002526041398005,0.0029865702982495024,27.953581,-81.69347
33100,"Miami-Fort Lauderdale-West Palm Beach, FL",2297210,0.0011988940324210162,0.021985313676828905,-0.02596303194138952,0.006508334073825353,-0.0013317217768437223,26.101828,-80.478755
34940,"Naples-Immokalee-Marco Island, FL",123840,0.003168185246118782,0.02621584279162019,-0.022865917155276666,0.004476125897167213,-0.004657866287391954,26.118786,-81.400955
35840,"North Port-Sarasota-Bradenton, FL",257770,0.0018346743294921364,0.0252536020312846,-0.023475013370314046,0.00190328615594966,-0.0018472004874280357,27.364247,-82.319344
36100,"Ocala, FL",83980,0.0030979365372540424,0.02564502103809785,-0.022605834507997496,0.0009241902956068082,-0.0008654402884531592,29.202805,-82.0431
36740,"Orlando-Kissimmee-Sanford, FL",1055690,0.002583478570214459,0.023012261299746914,-0.023504163324999217,0.0068597757326906705,-0.003784395137223881,28.434396,-81.356084
37340,"Palm Bay-Melbourne-Titusville, FL",187010,0.0010795458254835855,0.023652456846245118,-0.022825221234920617,0.007153994887417442,-0.00690168467325826,28.298678,-80.700534
37460,"Panama City, FL",62010,0.0014046062149000171,0.03305401285777651,-0.03118689431481675,0.010186335557348075,-0.010648847885407903,30.101095,-85.474971
37860,"Pensacola-Ferry Pass-Brent, FL",148140,2.0177917576247317e-05,0.031138800569159797,-0.029587508276853913,0.005070044083117509,-0.006601158457847117,30.655401,-87.161828
38940,"Port St. Lucie, FL",123580,0.002108138704340068,0.02856008498147458,-0.027045122512068864,0.004981402579797442,-0.0043882263448630915,27.232699,-80.42677
39460,"Punta Gorda, FL",36170,0.0021109779734431733,0.035356171819188625,-0.033794531561939845,0.0050091491228389795,-0.0044598114066446565,26.868974,-81.941278
42680,"Sebastian-Vero Beach, FL",42740,0.0030339377491092057,0.030854428010816573,-0.02584652567830681,0.008107500881315635,-0.010081465464716208,27.700528,-80.574789
45220,"Tallahassee, FL",141810,-0.0016553675290597036,0.023998508208041808,-0.02938278966543212,0.01109054871410492,-0.007361634785774188,30.386425,-84.28041
45300,"Tampa-St. Petersburg-Clearwater, FL",1162840,0.0019130079345778817,0.022931667763702077,-0.02453573558302083,0.008931347531801304,-0.005414271777904642,28.125907,-82.465286
10500,"Albany, GA",46080,0.0021664885975876125,0.025504441809880513,-0.02668289031141058,0.011209906408252923,-0.007864969309135189,31.589303,-84.174913
12020,"Athens-Clarke County, GA",63700,0.002496789973057578,0.025067828307396206,-0.02239456592534475,0.008181972931199002,-0.008358445340192977,33.943984,-83.213897
12060,"Atlanta-Sandy Springs-Roswell, GA",2313350,0.002547430409296725,0.017051946741754476,-0.018018192288505652,0.00493444359582032,-0.001420767639772405,33.693728,-84.399911
12260,"Augusta-Richmond County, GA-SC",188140,0.0029510086508579003,0.020416905060232943,-0.021120478911394597,0.005469844615270919,-0.001815262113251434,33.460371,-81.982833
15260,"Brunswick, GA",30570,0.0037149727288615098,0.024495406926673263,-0.020759436503209938,0.0037872021612951473,-0.003808199855896921,31.301739,-81.588909
17980,"Columbus, GA-AL",86860,0.0020935632351219424,0.02682688947773404,-0.025201743251299646,0.004833093851153741,-0.004364676842466192,32.436836,-84.900879
19140,"Dalton, GA",46130,0.006205802467598498,0.013595439361214323,-0.015961645219538967,-0.004705982618958118,0.013277990944881218,34.796956,-84.856279
23580,"Gainesville, GA",67080,0.004646624178176073,0.017990804185817083,-0.014508871009621171,-0.0044621451290220715,0.005626836131002233,34.317569,-83.8185
25980,"Hinesville, GA",9140,0.010034699926320334,0.032805184409897575,-0.03101977964033084,0.006629567078048196,0.001619728078705418,31.778788,-81.57648
31420,"Macon, GA",77180,0.001871917834249226,0.02069397212879774,-0.02486944445732936,0.008120233839834914,-0.0020728436770541397,32.856216,-83.714305
40660,"Rome, GA",23750,0.004341191999944094,0.02832973870464356,-0.02526155068011493,0.00741118973140846,-0.00613818575599305,34.263692,-85.213685
42340,"Savannah, GA",138890,0.0033840698798358604,0.02134328049454677,-0.021310274493533288,0.003717892483557139,-0.0003668286047347896,32.109153,-81.273107
46660,"Valdosta, GA",36750,0.0035950939787285363,0.03152402171078006,-0.03212891789025457,0.011710189425802861,-0.007510199267599799,30.829645,-83.24064
47580,"Warner Robins, GA",49920,0.004327234574687255,0.03022447741699183,-0.018548727781943664,0.006906580156769704,-0.014255095217130656,32.401594,-83.635095
46520,"Urban Honolulu, HI",357120,0.003177978797340386,0.01673048105144688,-0.019170229638518554,0.006487517498562009,-0.0008697901141498932,21.580023,-158.123406
11180,"Ames, IA",30110,-0.000332370035890428,0.026123390684626602,-0.032034242067080554,0.00499237018285674,0.0005861111637067984,42.037538,-93.466093
16300,"Cedar Rapids, IA",118890,0.0018736328605107322,0.018761339235756222,-0.021985321422320403,0.008246259099801798,-0.0031486440527268705,42.086329,-91.631144
19340,"Davenport-Moline-Rock Island, IA-IL",147390,0.002160191547834034,0.021531220238104443,-0.022168220216176482,0.006956514842634751,-0.004159323316728719,41.39168,-90.460076
19780,"Des Moines-West Des Moines, IA",316860,0.0007056484194444268,0.01908484552467836,-0.022018396190359696,0.00729156346007391,-0.0036523643749481194,41.54486,-93.943487
20220,"Dubuque, IA",44210,0.0029178035723124163,0.024588361842583284,-0.025727000618406493,0.011005104681415773,-0.00694866233328012,42.463481,-90.878771
26980,"Iowa City, IA",67340,-0.0010783422983552948,0.028189109309055493,-0.027737909337531175,0.009857882490733563,-0.011387424760613246,41.517806,-91.64793
43580,"Sioux City, IA-NE-SD",67170,0.0034969100184509827,0.01144878686221279,-0.024680898150543473,-0.005955685928338908,0.022684707235120616,42.580634,-96.376047
47940,"Waterloo-Cedar Falls, IA",68740,0.002246067742473934,0.021789373882313806,-0.02265325798182738,0.010748372424387781,-0.007638420582400288,42.536796,-92.471608
14260,"Boise City, ID",296810,0.001800211852433009,0.014094815449835069,-0.015675991048028942,0.0021114198803344336,0.0012699675702923796,43.006648,-116.141909
17660,"Coeur d'Alene, ID",49850,0.0026198754128360924,0.024341139425490488,-0.020270699184247065,0.004396201827644233,-0.00584676665605148,47.675966,-116.695922
26820,"Idaho Falls, ID",56200,0.0030475666159883175,0.01886221428853907,-0.01902056833794702,0.00795263612857304,-0.0047467154631767455,43.620423,-112.420919
30300,"Lewiston, ID-WA",18500,0.0020790617343821594,0.017484659015276183,-0.01876452549876184,-0.0007033178409861784,0.004062246058853997,46.251696,-116.925017
38540,"Pocatello, ID",26140,0.00343341093857219,0.01998839682264611,-0.014033085620358793,0.00866981689752959,-0.01119171716124473,42.692921,-112.228982
14010,"Bloomington, IL",65850,0.004499762734406831,0.020379288519553534,-0.029671293491036727,0.0303817887718896,-0.01659002106599959,40.405593,-88.861307
16580,"Champaign-Urbana, IL",75070,0.0024395122496486676,0.024917354857511315,-0.02780294956531512,0.0133963677011147,-0.008071260743662212,40.234489,-88.298623
16980,"Chicago-Naperville-Elgin, IL-IN-WI",4012910,0.0019935725501556423,0.01956895086686257,-0.020781264442966713,0.008208280749091912,-0.0050023946228321264,41.823521,-87.828297
19180,"Danville, IL",18370,0.004231090484793032,0.02202033913826648,-0.02374968666367705,0.008989424291005521,-0.0030289862808019208,40.186754,-87.726778
19500,"Decatur, IL",30380,0.0031162509545591965,0.020801342214225846,-0.024968850156681877,-0.0028954276473669854,0.01017918654438224,39.860237,-88.961529
28100,"Kankakee, IL",32460,0.004570767706007395,0.02816633946453749,-0.027270413834268953,0.007940537480812193,-0.0042656954050733775,41.13951,-87.861117
37900,"Peoria, IL",133740,0.002901188832625745,0.022166130922884247,-0.022698390101066085,0.012106370672496383,-0.008672922661688898,40.788255,-89.514745
40420,"Rockford, IL",117170,0.004469348237992943,0.020859606439926556,-0.018028926913949417,0.004226839751343844,-0.002588171039327916,42.331183,-89.042914
44100,"Springfield, IL",79690,-0.0008278799370301515,0.018333227383080644,-0.023164938036258936,0.0018763747762348126,0.0021274559399133697,39.828565,-89.696205
14020,"Bloomington, IN",47400,0.0012843723482136027,0.02947671783327488,-0.025628823273850077,0.018391753688739576,-0.020955275899950762,39.241736,-86.671754
18020,"Columbus, IN",33600,0.001741742677785485,0.02918653469442037,-0.02407119788851808,0.012376034960180027,-0.015749629088296815,39.205843,-85.897999
21140,"Elkhart-Goshen, IN",111830,0.0066319932962218275,0.01204710506565293,-0.008716336050984486,-0.00016885359179349968,0.0034700778733469106,41.600693,-85.863986
21780,"Evansville, IN-KY",126620,0.0037809779774478636,0.0236256820359316,-0.016221569622938137,0.004033698129459709,-0.007656832565005281,38.02007,-87.586166
23060,"Fort Wayne, IN",183760,0.0038292458552852127,0.016554475867295068,-0.014916681439857804,0.0023843919414142795,-0.00019294051356631703,41.006999,-85.216424
26900,"Indianapolis-Carmel-Anderson, IN",918400,0.002953964727369862,0.01636222659438305,-0.01830903588638577,0.005689697559095638,-0.0007889235397230687,39.74867,-86.212382
29020,"Kokomo, IN",20920,0.004458354419063004,0.023928959459277116,-0.022152419047983762,-0.003705470227832325,0.00638728423560192,40.483537,-86.114118
29200,"Lafayette-West Lafayette, IN",70940,0.0004174695608404333,0.023344775886708247,-0.0210738638885051,0.004490867478218807,-0.0063443099155815474,40.514717,-86.930475
33140,"Michigan City-La Porte, IN",29730,0.0038682914813410463,0.029840694333261558,-0.02916951199650189,0.005162659431933392,-0.0019655502873520136,41.549013,-86.744739
34620,"Muncie, IN",32310,0.002692338853262588,0.02197381274022378,-0.030686602044477734,0.0031033613937976323,0.008301766763718979,40.227543,-85.399262
43780,"South Bend-Mishawaka, IN-MI",111220,0.0017874232657061895,0.02179196726343134,-0.021109421225492808,0.0008846063868336862,0.000220270840933956,41.774981,-86.123014
45460,"Terre Haute, IN",52250,0.0024134557805736145,0.027400967945500745,-0.02175399049820248,0.006036206044105694,-0.009269727710830344,39.392389,-87.347096
29940,"Lawrence, KS",32990,0.000632669973438027,0.02536542555383768,-0.023384569443516467,0.002776357107976024,-0.0041245432448592245,38.896417,-95.290947
45820,"Topeka, KS",89140,0.0017716070892209723,0.016290507229838325,-0.01827358766389567,0.003308336797860051,0.0004463507254182514,39.041389,-95.802639
48620,"Wichita, KS",249410,0.0018316463883777945,0.024345537021999417,-0.018270589095173984,0.0046214876809101,-0.008864789219357766,37.629831,-97.398832
14540,"Bowling Green, KY",54440,0.0032412250450350455,0.024657470982569554,-0.025847997817411206,0.00333279226354162,0.0010989596163350768,37.046821,-86.397068
21060,"Elizabethtown-Fort Knox, KY",41130,0.0048295792271265126,0.029978421630499644,-0.02689721067440734,0.020173792149719552,-0.018425423878685274,37.73298,-85.972171
30460,"Lexington-Fayette, KY",223950,0.00347751699981963,0.019710115531422143,-0.018882088373037842,0.006211233464001417,-0.0035617436225661436,38.102876,-84.438545
31140,"Louisville/Jefferson County, KY-IN",548540,0.003798356398800884,0.015453306141334916,-0.015344299472472372,0.005050192092409936,-0.0013608423624715954,38.33524,-85.668941
36980,"Owensboro, KY",34230,0.0035352548646664372,0.022898234855913274,-0.02509102834908722,0.008750101822234638,-0.0030220534643942004,37.693723,-87.077058
10780,"Alexandria, LA",42710,0.004113418189995388,0.024274307483490853,-0.013073458204126281,0.007685986196839689,-0.01477341728620886,31.325348,-92.546803
12940,"Baton Rouge, LA",309720,0.0021660702611466243,0.01870827288991861,-0.016182386052283948,0.0018850146013468794,-0.0022448311778350133,30.57089,-91.134533
26380,"Houma-Thibodaux, LA",61340,0.004285672183769351,0.026522147668059437,-0.011623361482462125,0.005972181028735035,-0.016585295030563024,29.33413,-90.843674
29180,"Lafayette, LA",153300,0.001311669713377539,0.02494725083711688,-0.01754984223448583,0.0031149776115185213,-0.009200716500771977,29.957773,-92.04935
29340,"Lake Charles, LA",77030,0.0030964476630106486,0.016313187669925372,-0.017995156284022124,0.0031528045008730465,0.0016256117762343814,29.978755,-93.253243
33740,"Monroe, LA",55120,0.0016562592800414833,0.02840431030551517,-0.020134132273856936,0.008031007607825297,-0.01464492635944202,32.690477,-92.262793
35380,"New Orleans-Metairie, LA",438530,0.0018437547986290825,0.024056030507658158,-0.016727266012087377,0.006599704759540553,-0.012084714456482307,29.805532,-89.701382
43340,"Shreveport-Bossier City, LA",130700,0.003267589992432929,0.022963904672493915,-0.019778006227690215,0.005141681994035113,-0.0050599904464058015,32.490638,-93.671191
70900,"Barnstable Town, MA",80860,0.003942189213164304,0.020628270981919244,-0.020462343161729124,0.005007865040052087,-0.0012316036470778752,41.799014,-70.21188
71650,"Boston-Cambridge-Nashua, MA-NH",2375520,-0.00025559037074535107,0.01723461625863118,-0.019416597986158635,0.007639774936825147,-0.005713383580043002,42.517606,-71.021993
76600,"Pittsfield, MA",27550,0.0017237554744863326,0.02042192015819344,-0.020517823738875784,0.0019343626606267983,-0.00011470360545819125,42.371493,-73.217928
78100,"Springfield, MA-CT",274870,0.0006521488270699871,0.019873394701152375,-0.019102072963204236,0.006585187811199447,-0.006704360722077585,42.2478,-72.632108
79600,"Worcester, MA-CT",237760,0.0007298410725534721,0.015790231566550073,-0.01835285478371515,0.0020017903200081344,0.0012906739697103736,42.217311,-71.925535
12580,"Baltimore-Columbia-Towson, MD",1110050,0.0017626333078553102,0.015413527755254758,-0.017180513481423243,0.007671678745342997,-0.004142059711319118,39.304361,-76.549501
19060,"Cumberland, MD-WV",23300,0.0014571323178231843,0.029683258260536957,-0.027262816653617405,0.011300893692133676,-0.012264202981230002,39.532185,-78.807082
25180,"Hagerstown-Martinsburg, MD-WV",77660,0.002465886515994331,0.02890260124733081,-0.03191557463223396,0.007518448912780293,-0.0020395890118828364,39.542152,-77.899767
41540,"Salisbury, MD-DE",132470,0.003126942780418307,0.015454170832252784,-0.01778093603489231,-0.005464601297363161,0.01091830928042098,38.399521,-75.478262
70750,"Bangor, ME",49170,0.0018503024625048936,0.022075706751272683,-0.016396959712450532,0.005465461492087778,-0.009293906068405064,45.409284,-68.666616
74650,"Lewiston-Auburn, ME",37770,0.002571125699672494,0.013655741786294029,-0.020613755930212252,0.003998615695661137,0.00553052414792958,44.167681,-70.207435
76750,"Portland-South Portland, ME",173640,0.002112655560685295,0.019161777332723215,-0.016579873136091022,0.009645986055178274,-0.010115234691125186,43.651417,-70.418375
11460,"Ann Arbor, MI",177170,-0.0027551430258944687,0.01865679429998887,-0.0305753216479209,0.02199307299311777,-0.012829688671080239,42.252217,-83.843423
12980,"Battle Creek, MI",37010,0.003651870665714263,0.016713388201485713,-0.014190266315849742,-0.003616344354846049,0.004745093134924425,42.24299,-85.012385
13020,"Bay City, MI",22270,0.003657011063407656,0.02690256373991788,-0.031060878482631615,0.012638186874592824,-0.0048228610684714485,43.699711,-83.978701
19820,"Detroit-Warren-Dearborn, MI",1622440,0.0032333404346875927,0.014303270435106333,-0.018771616271612168,0.00770226765959961,-5.81388406140082e-07,42.721848,-83.200846
22420,"Flint, MI",100110,0.0034625126515233084,0.019835643554912158,-0.023411341632916277,0.005137621871820125,0.0019005888577072888,43.021077,-83.706372
24340,"Grand Rapids-Wyoming, MI",460380,0.002425726957145158,0.012832015580703265,-0.016314159484921126,0.0019418756268290427,0.003965995234534003,42.978632,-85.811208
27100,"Jackson, MI",35210,0.004118804151192645,0.01551295477529982,-0.01972694748091061,-0.0018679881013298205,0.010200784958133341,42.248474,-84.420868
28020,"Kalamazoo-Portage, MI",112600,0.0018959361191030477,0.021625254354000395,-0.022441867456179043,0.00887820555721891,-0.006165656335937214,42.268871,-86.037373
29620,"Lansing-East Lansing, MI",162600,0.0014740658330223977,0.017940330520518577,-0.025518801290157433,0.01633463985492975,-0.007282103252268482,42.713659,-84.605372
33780,"Monroe, MI",27060,0.004647171384066506,0.01935035070300871,-0.02567439253903392,0.009902362880152393,0.0010688503399392951,41.916097,-83.487106
34740,"Muskegon, MI",38160,0.002488236634924923,0.026752095978479648,-0.03192860037166423,0.0018446991399435064,0.005820041888165969,43.289258,-86.751892
35660,"Niles-Benton Harbor, MI",42160,0.001940151234437748,0.02493724997338044,-0.021098714569126098,-0.004750916352999665,0.00285253218318314,41.791382,-86.742543
40980,"Saginaw, MI",59640,0.0019547504819734662,0.02780007231739104,-0.023699388913341446,0.0028224284751747764,-0.004968361397250917,43.328267,-84.05541
20260,"Duluth, MN-WI",101050,0.002861484283366744,0.02229345561788304,-0.019271070881459545,0.008606254609242664,-0.00876715506229947,47.329703,-92.37627
33460,"Minneapolis-St. Paul-Bloomington, MN-WI",1693150,0.0008439025339797568,0.01703757979288406,-0.016967382473214082,0.006644618651048498,-0.005870913436738762,45.060982,-93.351369
40340,"Rochester, MN",82550,-0.0003261512452442661,0.023641805345320774,-0.018612510966928925,-0.0034150084450056822,-0.0019404371786303776,43.949636,-92.33607
41060,"St. Cloud, MN",83320,0.004344671041472237,0.0191177708659849,-0.021430676008879185,0.00731514040549143,-0.0006575642211249372,45.593031,-94.488363
17860,"Columbia, MO",66620,0.0006993216069598462,0.021411451005956816,-0.02011359655035752,0.00873150659574698,-0.009330039444386456,38.989861,-92.310202
27620,"Jefferson City, MO",55910,0.00043633614028354417,0.024670189995752684,-0.02266190503517551,0.011718356414464143,-0.01329030523475784,38.637121,-92.089227
27900,"Joplin, MO",64400,0.003587248192461756,0.022471242303253966,-0.023158934233727918,0.006688116075894562,-0.0024131759529588126,37.055546,-94.339736
28140,"Kansas City, MO-KS",926760,0.0018718957726072127,0.017161055907761916,-0.017328257706005157,0.004757744219003532,-0.002718646648153064,38.931849,-94.443824
41140,"St. Joseph, MO-KS",38490,0.0043740171558681595,0.02202850646233047,-0.02900681213208997,0.013212029212177914,-0.001859706386550239,39.834843,-94.783754
41180,"St. Louis, MO-IL",1187830,0.0025588113356854736,0.019593924587057,-0.019256501681479354,0.007448269642835709,-0.005226881212727796,38.740372,-90.345956
44180,"Springfield, MO",175150,0.0020084823642341765,0.022802922190798894,-0.021349635194998967,0.005153678225913325,-0.0045984828574791164,37.36087,-93.180262
25060,"Gulfport-Biloxi-Pascagoula, MS",124190,0.003759577400840375,0.01761415439592108,-0.024828613638534586,0.00544061390458192,0.005533422738872015,30.430245,-88.979736
25620,"Hattiesburg, MS",48030,0.0022153574154770705,0.027441717134556023,-0.027460821062676527,0.006883476719777834,-0.004649015376180246,31.188441,-89.232741
27140,"Jackson, MS",221540,0.0008339385858432413,0.022370434578049103,-0.018840590116335404,0.002970660137076836,-0.005666566012947363,32.316001,-90.22084
13740,"Billings, MT",69450,0.00410942601710601,0.024855121008685407,-0.019560279451073137,0.007144372575911703,-0.00832978811641795,45.775175,-108.726537
24500,"Great Falls, MT",24750,0.004625030794533969,0.018691739749172168,-0.023308714105932687,0.003354850316536054,0.005887154834758407,47.316575,-111.350262
33540,"Missoula, MT",46780,0.0023255055303788574,0.023771511804180426,-0.02124293712290909,0.0061424252072383445,-0.006345494358130907,47.027263,-113.892691
11700,"Asheville, NC",157610,0.005137832358816263,0.018746394910833464,-0.018368702192161884,0.005687581722432403,-0.0009274420822877882,35.595669,-82.681615
15500,"Burlington, NC",49150,0.004129493520304728,0.023779712851539653,-0.020849471648049234,0.001472488526061147,-0.0002732362092468521,36.043954,-79.400573
16740,"Charlotte-Concord-Gastonia, NC-SC",1108480,0.0033386451507540493,0.015700960071211106,-0.01692974310052603,0.00700140383409463,-0.0024339756540256163,35.187295,-80.867491
20500,"Durham-Chapel Hill, NC",252640,0.000586865985562457,0.01835110394337014,-0.018695302730110913,0.007470859854888087,-0.006539795082584801,35.995536,-79.09699
22180,"Fayetteville, NC",100720,0.0050075075868314944,0.023948181205379837,-0.02091951157727656,0.011603615034375417,-0.009624777075647267,35.037956,-78.982209
24140,"Goldsboro, NC",30870,0.005108319109513815,0.02206325206345809,-0.022736005954582528,0.010527719205417924,-0.004746646204779659,35.35419,-78.00867
24660,"Greensboro-High Point, NC",312860,0.004084682948230334,0.017288792346044607,-0.018480973992107408,0.007322298562489463,-0.0020454339681963,36.025204,-79.792633
24780,"Greenville, NC",59420,0.0046663411721289405,0.020488514436930616,-0.018613765506668045,0.011570728201529212,-0.008779135959662773,35.59249,-77.372739
25860,"Hickory-Lenoir-Morganton, NC",126660,0.00678603137406919,0.014533130482842535,-0.01222388351727674,0.00429274771500808,0.000184036693495232,35.814611,-81.457066
27340,"Jacksonville, NC",37500,0.004689441496368241,0.02488579373519499,-0.03146406061083509,0.008125790491439244,0.0031419178805691256,34.763109,-77.499469
39580,"Raleigh, NC",557250,0.003236331696499062,0.016320036547323016,-0.016222117881034948,0.009751862543156853,-0.006613449512945929,35.756746,-78.460441
40580,"Rocky Mount, NC",40700,0.0042668027006899645,0.02077980787752548,-0.01719850306073556,0.0058032091615408815,-0.0051177112776407685,35.941045,-77.798549
48900,"Wilmington, NC",109160,0.0048236205408579425,0.021017273604959086,-0.02056479973347547,0.010700737437457905,-0.006329590768083607,34.426033,-77.889634
49180,"Winston-Salem, NC",224810,0.0042788469872934165,0.017274382829674334,-0.015570978253501427,0.0037874096427906873,-0.0012119672316701635,36.078852,-80.345064
13900,"Bismarck, ND",54730,0.001390115434705852,0.021360715183250778,-0.02281103655151312,0.008578127512965744,-0.0057376907099974395,46.726594,-100.996096
22020,"Fargo, ND-MN",116120,0.00156187958733095,0.022165359580058858,-0.023046926333378903,0.008487652061341028,-0.006044205720690116,46.914859,-96.960183
24220,"Grand Forks, ND-MN",35710,0.004060719814775515,0.018223477208115096,-0.025136803634152216,0.0038858134275813055,0.007088232813231343,47.835929,-96.842681
30700,"Lincoln, NE",150990,0.0005074431876991858,0.021990398751853657,-0.025786135622160727,0.008794381642406451,-0.0044912015844001535,40.817458,-96.868743
36540,"Omaha-Council Bluffs, NE-IA",431290,0.0014076229621412528,0.02072746234123965,-0.023277434686017923,0.009555076576154786,-0.005597481269235177,41.290459,-95.99997
74950,"Manchester, NH",93110,0.002604854050701211,0.01786482204282369,-0.021273774487640035,0.00892327548055391,-0.0029094689850363425,42.911532,-71.723055
12100,"Atlantic City-Hammonton, NJ",93470,0.0035718000160219754,0.024724041046576842,-0.02828508833307536,0.012028339709320338,-0.004895492406799873,39.469355,-74.633759
36140,"Ocean City, NJ",27430,0.003907774500134631,0.026867068501111757,-0.020208102694240143,-0.0023513626406049537,-0.00039982866613198775,39.086141,-74.84771
45940,"Trenton, NJ",186260,-0.0010936796276762584,0.012164406800281677,-0.017031251104776712,0.004640622521157947,-0.0008674578443391423,40.282503,-74.703724
47220,"Vineland-Bridgeton, NJ",47400,0.004219189218587549,0.01469530629425106,-0.02069600017153428,-0.002193132816083021,0.012413015911953804,39.328434,-75.121628
10740,"Albuquerque, NM",330360,0.002747731983073709,0.022570215715240705,-0.019565453427793644,0.008205292674013848,-0.008462322978387254,35.123496,-106.458392
22140,"Farmington, NM",35490,0.005302279495182249,0.026211922435658022,-0.017324664174967086,0.004786828317351111,-0.008371807082859825,36.511624,-108.324578
29740,"Las Cruces, NM",55810,0.0032026024770437367,0.020840671424024848,-0.015844273406392162,0.008199921049139941,-0.009993716589728877,32.349919,-106.834968
42140,"Santa Fe, NM",49000,0.0018354884226648438,0.015552090551390785,-0.018520758843064533,0.006590245696347544,-0.0017860889820089237,35.51453,-105.963972
16180,"Carson City, NV",20520,-0.0014351214481311825,0.025465955900865506,-0.030707899376203968,0.007191087566991855,-0.0033842655397845894,39.15306,-119.747379
29820,"Las Vegas-Henderson-Paradise, NV",803310,0.004354287901859932,0.025174871429585077,-0.020284222956690384,0.009770294740083021,-0.010306655311117713,36.214257,-115.013812
39900,"Reno, NV",189760,0.0031406874767990756,0.018585962299755315,-0.02145608047078501,0.00707456884719411,-0.0010637631993653668,40.500795,-119.731161
10580,"Albany-Schenectady-Troy, NY",376820,5.434391272662875e-05,0.017979036819341376,-0.020874312324268923,0.005466057596742832,-0.0025164381790886564,42.78792,-73.942348
13780,"Binghamton, NY",78630,0.0013791734465394834,0.02092201214421191,-0.02149335428558477,0.003631161880081918,-0.0016806462921695325,42.163928,-76.022943
15380,"Buffalo-Cheektowaga-Niagara Falls, NY",451840,0.0010536564474413757,0.022258138155414442,-0.022528070569041492,0.0064019626011340425,-0.005078373740065645,43.044371,-78.777335
21300,"Elmira, NY",25270,0.0016661964190732292,0.032670998605924,-0.02054736778070626,-0.001925259039262217,-0.00853217536688236,42.15528,-76.747179
24020,"Glens Falls, NY",38740,0.002756717650002405,0.02444640492536497,-0.021877967111084723,0.004243169666948057,-0.004054889831225872,43.44045,-73.636757
27060,"Ithaca, NY",33170,-0.0012084132281371396,0.022785296156244625,-0.02496740084076507,0.01150403508630643,-0.010530343629923056,42.453006,-76.473483
28740,"Kingston, NY",45480,0.001875878149510235,0.02614331494957349,-0.022016199781352275,0.003629552091666488,-0.005880789110377413,41.947212,-74.265458
35620,"New York-Newark-Jersey City, NY-NJ-PA",8114670,-0.0005775357910833279,0.018100106704872873,-0.016374956333336327,0.0036218473092221037,-0.005924533471842006,40.898788,-73.90313
40380,"Rochester, NY",431850,0.0015148002239463443,0.020498930448445057,-0.020694388630127514,0.006192045568560581,-0.004481787162931822,43.148038,-77.523257
45060,"Syracuse, NY",255290,0.0005672869284901738,0.022063888557443442,-0.021684575808760376,0.0073146256593981385,-0.007126651479591059,43.006516,-76.196134
46540,"Utica-Rome, NY",99720,-0.0004370595432479085,0.026069760098948264,-0.016608196112726376,-0.0014941729885467187,-0.008404450540923036,43.33228,-75.173189
10420,"Akron, OH",277900,0.0028140725125451183,0.01855710920075146,-0.01843991100133155,0.006359944054816893,-0.003663069741691685,41.146639,-81.35011
15940,"Canton-Massillon, OH",137010,0.0037568236639117236,0.02287335789619399,-0.01916494765270843,0.005930734412935235,-0.0058823209925090575,40.711072,-81.261474
17140,"Cincinnati, OH-KY-IN",940420,0.002568688360810756,0.015338803118347719,-0.015272811298408795,-0.001958503785947238,0.004461200326819001,39.069458,-84.427153
17460,"Cleveland-Elyria, OH",891900,0.003849016706576447,0.01581476047110414,-0.01891844151597502,0.01384047401191131,-0.0068877762604640375,41.760392,-81.724217
18140,"Columbus, OH",933140,0.0018529183647498226,0.008776554229018227,-0.01380201388739244,-0.003935512922048273,0.010813890945172336,39.968562,-82.835911
19380,"Dayton, OH",312420,0.0017566810944016353,0.011951496445921833,-0.009498150887098655,0.003437362703408081,-0.004134027167829707,39.828854,-84.141813
30620,"Lima, OH",35460,0.001382032797141719,0.008333520781964698,-0.05284609370259433,0.009764928918315333,0.03612967679945596,40.771627,-84.106103
31900,"Mansfield, OH",35830,0.010362642582267878,0.021462857610225317,-0.04651545302129079,0.014969427787408479,0.02044581020592487,40.774159,-82.542781
44220,"Springfield, OH",36070,0.014104589288395086,0.011343123023710086,-0.02521297488479285,0.018419921507575363,0.009554519641902529,39.917032,-83.783676
45780,"Toledo, OH",244630,-0.003841669443698903,-0.011132088902361975,0.0052734991465427095,-0.030822419966688164,0.0328393402788085,41.544357,-83.690777
49660,"Youngstown-Warren-Boardman, OH-PA",171940,,,,,,41.23646,-80.561784
30020,"Lawton, OK",29720,,,,,,34.52911,-98.430917
36420,"Oklahoma City, OK",555200,,,,,,35.430968,-97.506966
46140,"Tulsa, OK",389850,,,,,,36.254429,-96.177329
13460,"Bend-Redmond, OR",66780,,,,,,43.915118,-121.225575
18700,"Corvallis, OR",22490,,,,,,44.493882,-123.424664
21660,"Eugene, OR",126710,,,,,,43.928329,-122.89769
32780,"Medford, OR",72350,,,,,,42.411628,-122.675685
38900,"Portland-Vancouver-Hillsboro, OR-WA",1007860,,,,,,45.60062,-122.484346
41420,"Salem, OR",144890,,,,,,44.903385,-122.901757
10900,"Allentown-Bethlehem-Easton, PA-NJ",311720,,,,,,40.789339,-75.398158
11020,"Altoona, PA",46120,,,,,,40.497922,-78.310636
21500,"Erie, PA",100080,,,,,,42.117952,-80.096386
25420,"Harrisburg-Carlisle, PA",276490,,,,,,40.335915,-77.05049
27780,"Johnstown, PA",38340,,,,,,40.510222,-78.710478
29540,"Lancaster, PA",208250,,,,,,40.041992,-76.250198
30140,"Lebanon, PA",38770,,,,,,40.371559,-76.46487
37980,"Philadelphia-Camden-Wilmington, PA-NJ-DE-MD",2475380,0.0004366519790726664,0.018113150228935143,-0.01746311707303519,0.006199652051605817,-0.006413033228433132,39.894936,-75.311955
38300,"Pittsburgh, PA",979190,,,,,,40.434338,-79.828061
39740,"Reading, PA",143050,,,,,,40.413957,-75.92686
42540,"Scranton--Wilkes-Barre--Hazleton, PA",214900,,,,,,41.322881,-75.898188
44300,"State College, PA",47030,,,,,,40.909128,-77.847877
48700,"Williamsport, PA",36530,,,,,,41.343882,-77.055262
49620,"York-Hanover, PA",150880,,,,,,39.921751,-76.728889
77200,"Providence-Warwick, RI-MA",470290,,,,,,41.706831,-71.286637
16700,"Charleston-North Charleston, SC",310220,,,,,,33.021989,-80.012043
17900,"Columbia, SC",337330,,,,,,34.077585,-81.037845
22500,"Florence, SC",72900,,,,,,34.154902,-79.80759
24860,"Greenville-Anderson-Mauldin, SC",357660,,,,,,34.683709,-82.413423
34820,"Myrtle Beach-Conway-North Myrtle Beach, SC-NC",139490,,,,,,33.969095,-78.612724
43900,"Spartanburg, SC",133750,,,,,,34.83462,-81.842401
44940,"Sumter, SC",27180,,,,,,33.91614,-80.382376
39660,"Rapid City, SD",55180,,,,,,44.195108,-102.916612
43620,"Sioux Falls, SD",137560,,,,,,43.49542,-96.995339
16860,"Chattanooga, TN-GA",207330,,,,,,35.049361,-85.361158
17300,"Clarksville, TN-KY",68890,,,,,,36.749207,-87.558283
17420,"Cleveland, TN",27980,,,,,,35.138117,-84.655079
27180,"Jackson, TN",51040,,,,,,35.610937,-88.853902
27740,"Johnson City, TN",58320,,,,,,36.265822,-82.332693
28700,"Kingsport-Bristol-Bristol, TN-VA",91790,,,,,,36.604161,-82.440145
28940,"Knoxville, TN",329960,,,,,,36.044462,-84.136114
32820,"Memphis, TN-MS-AR",543370,,,,,,35.008557,-89.821816
34100,"Morristown, TN",31460,,,,,,36.115484,-83.376546
34980,"Nashville-Davidson--Murfreesboro--Franklin, TN",864430,,,,,,36.091577,-86.72298
10180,"Abilene, TX",54760,,,,,,32.452022,-99.718743
11100,"Amarillo, TX",89850,,,,,,35.247897,-101.908638
12420,"Austin-Round Rock, TX",922230,,,,,,30.239513,-97.69127
13140,"Beaumont-Port Arthur, TX",131420,,,,,,30.347833,-94.120371
15180,"Brownsville-Harlingen, TX",119550,,,,,,26.102923,-97.478958
17780,"College Station-Bryan, TX",92350,,,,,,30.754392,-96.488537
18580,"Corpus Christi, TX",153890,,,,,,27.898931,-97.401236
19100,"Dallas-Fort Worth-Arlington, TX",3265540,0.002194985206134481,0.01846075493663299,-0.01805862830248922,0.005476955934039698,-0.003684097362048902,32.822558,-97.025131
21340,"El Paso, TX",265190,,,,,,31.527394,-105.521333
26420,"Houston-The Woodlands-Sugar Land, TX",2693320,,,,,,29.749593,-95.353642
28660,"Killeen-Temple, TX",116430,,,,,,31.20273,-97.789638
29700,"Laredo, TX",80710,,,,,,27.760799,-99.340752
30980,"Longview, TX",74320,,,,,,32.364601,-94.819897
31180,"Lubbock, TX",121930,,,,,,33.470327,-101.648825
32580,"McAllen-Edinburg-Mission, TX",228720,,,,,,26.396384,-98.18099
33260,"Midland, TX",87300,,,,,,32.092359,-101.994539
36220,"Odessa, TX",62160,,,,,,31.865301,-102.542507
41660,"San Angelo, TX",33970,,,,,,31.36531,-100.659418
41700,"San Antonio-New Braunfels, TX",904060,,,,,,29.43306,-98.606973
43300,"Sherman-Denison, TX",36650,,,,,,33.624524,-96.675693
45500,"Texarkana, TX-AR",43080,,,,,,33.47837,-94.207169
46340,"Tyler, TX",80450,,,,,,32.375105,-95.268939
47020,"Victoria, TX",27670,,,,,,28.731455,-97.196993
47380,"Waco, TX",95870,,,,,,31.427226,-97.093473
48660,"Wichita Falls, TX",42850,,,,,,33.776144,-98.501907
30860,"Logan, UT-ID",46500,,,,,,41.883617,-111.784324
36260,"Ogden-Clearfield, UT",224010,,,,,,41.300466,-113.126808
39340,"Provo-Orem, UT",215030,,,,,,39.872067,-112.359059
41100,"St. George, UT",55320,,,,,,37.262531,-113.4878
41620,"Salt Lake City, UT",653600,,,,,,40.572887,-112.953253
13980,"Blacksburg-Christiansburg-Radford, VA",50080,,,,,,37.121364,-80.531517
16820,"Charlottesville, VA",87710,,,,,,37.85459,-78.578282
25500,"Harrisonburg, VA",48070,,,,,,38.507585,-78.885321
31340,"Lynchburg, VA",78810,,,,,,37.364926,-79.216689
40060,"Richmond, VA",552180,,,,,,37.460057,-77.473869
40220,"Roanoke, VA",125270,,,,,,37.286226,-79.946935
47260,"Virginia Beach-Norfolk-Newport News, VA-NC",642280,,,,,,36.856081,-76.373791
49020,"Winchester, VA-WV",47550,,,,,,39.272974,-78.471828
72400,"Burlington-South Burlington, VT",94320,,,,,,44.689117,-73.041171
13380,"Bellingham, WA",68230,,,,,,48.842653,-121.836432
14740,"Bremerton-Silverdale, WA",68250,,,,,,47.639687,-122.649636
28420,"Kennewick-Richland, WA",97250,,,,,,46.363964,-119.254046
31020,"Longview, WA",29060,,,,,,46.196785,-122.67846
34580,"Mount Vernon-Anacortes, WA",37920,,,,,,48.493292,-121.81577
36500,"Olympia-Tumwater, WA",94180,,,,,,46.935822,-122.830152
42660,"Seattle-Tacoma-Bellevue, WA",1678420,0.0016197444230413582,0.012762074284932798,-0.01992120847548068,0.01589293659608465,-0.007114057982495467,47.490599,-121.833996
44060,"Spokane-Spokane Valley, WA",206260,,,,,,48.189041,-117.573219
48300,"Wenatchee, WA",36500,,,,,,47.76611,-120.270197
49420,"Yakima, WA",79250,,,,,,46.456558,-120.740145
11540,"Appleton, WI",100110,,,,,,44.290603,-88.372326
20740,"Eau Claire, WI",65870,,,,,,44.938672,-91.284322
22540,"Fond du Lac, WI",30350,,,,,,43.754722,-88.493284
24580,"Green Bay, WI",142080,,,,,,44.474024,-87.99613
27500,"Janesville-Beloit, WI",53590,,,,,,42.66988,-89.075284
29100,"La Crosse-Onalaska, WI-MN",59230,,,,,,43.783246,-91.318743
31540,"Madison, WI",340750,,,,,,43.084294,-89.59718
33340,"Milwaukee-Waukesha-West Allis, WI",721270,,,,,,43.01766,-87.481554
36780,"Oshkosh-Neenah, WI",70660,,,,,,44.085707,-88.668149
39540,"Racine, WI",59280,,,,,,42.754122,-87.420877
43100,"Sheboygan, WI",46000,,,,,,43.741232,-87.731516
48140,"Wausau, WI",58180,,,,,,44.898036,-89.757823
16620,"Charleston, WV",86470,,,,,,38.283213,-81.492557
26580,"Huntington-Ashland, WV-KY-OH",105090,,,,,,38.373691,-82.385193
34060,"Morgantown, WV",44560,,,,,,39.525155,-79.801912
37620,"Parkersburg-Vienna, WV",25540,,,,,,39.141531,-81.460402
48260,"Weirton-Steubenville, WV-OH",25920,,,,,,40.388914,-80.701966
48540,"Wheeling, WV-OH",44930,,,,,,39.975509,-80.847011
16220,"Casper, WY",28390,,,,,,42.977645,-106.768219
16940,"Cheyenne, WY",36090,,,,,,41.29283,-104.660395
