AREA,AREA_NAME,Employment,Automation Index,Race with the Machine,Race against the Machine,Race ahead of the Machine,Running a Different Race,Lat,Long
11260,"Anchorage, AK",477750,0.44873314795884905,0.10947537548936871,0.13939582387098828,0.03089858920046297,0.1689633593980291,62.212784,-149.678222
21820,"Fairbanks, AK",99500,0.4508528944496674,0.10738131995740618,0.14373912375215772,0.02778644150844302,0.17194600923166053,64.676044,-146.548159
11500,"Anniston-Oxford-Jacksonville, AL",135470,0.45975216973024224,0.09111682140618677,0.14852196383200603,0.025760872853456105,0.19435251163859335,33.771706,-85.822513
12220,"Auburn-Opelika, AL",135410,0.47806374822127906,0.10343547173319541,0.15418735594527017,0.02858253646852915,0.19185838407428432,32.604064,-85.353048
13820,"Birmingham-Hoover, AL",1540270,0.4593313237230333,0.10714289327798264,0.14668617094729403,0.031433930071560784,0.17406832942619585,33.462372,-86.814338
19460,"Decatur, AL",154760,0.4687634792613873,0.09052926409953277,0.15335619762515795,0.026568338003262464,0.19830967953343406,34.489361,-87.097147
20020,"Dothan, AL",170930,0.4670338016409685,0.10321196152716756,0.1505405275646774,0.026808514272751955,0.18647279827637164,31.245528,-85.46919
22520,"Florence-Muscle Shoals, AL",144440,0.47043911319729337,0.10143125504160157,0.15210857452538099,0.02632808221601035,0.19057120141430045,34.799254,-87.719388
23460,"Gadsden, AL",99590,0.4689909107477469,0.1072600255355021,0.148322340930253,0.026879797964322445,0.18652874631766936,34.047641,-86.034263
26620,"Huntsville, AL",608790,0.4445755754618286,0.10301161231273828,0.14290344702559,0.040366852459869464,0.15829366366363085,34.783262,-86.734871
33660,"Mobile, AL",533440,0.466784872447067,0.101459048276712,0.14966226885153397,0.028496075237041986,0.18716748008177903,30.684572,-88.196568
33860,"Montgomery, AL",498250,0.4674119691797086,0.10650169022338485,0.1535531107517393,0.030793690652468945,0.17656347755211552,32.365631,-86.404585
46220,"Tuscaloosa, AL",265700,0.4626674829396894,0.09357696079185332,0.15237237346944024,0.02555216897880498,0.1911659796995909,33.160611,-87.715166
22220,"Fayetteville-Springdale-Rogers, AR-MO",589900,0.4539408932540665,0.09466372611792968,0.14596612196022074,0.027389586654795635,0.18592145852112044,36.197633,-94.119897
22900,"Fort Smith, AR-OK",351780,0.46069329247274715,0.0900537236552131,0.14946322894117745,0.026260322905800264,0.1949160169705563,35.195534,-94.562533
26300,"Hot Springs, AR",103350,0.4629838829254834,0.10833303562490806,0.14827261815649984,0.025007589780741375,0.1813706393633342,34.578852,-93.146932
27860,"Jonesboro, AR",137850,0.46201236920601285,0.09719971754790721,0.14885852488849452,0.02627671066039259,0.18967741610921848,35.69697,-90.650173
30780,"Little Rock-North Little Rock-Conway, AR",998290,0.4518710907160857,0.10675057161091765,0.14457433034051909,0.03140321983597392,0.16914296892867503,34.755773,-92.400589
38220,"Pine Bluff, AR",99240,0.4507405982959284,0.09136001549784538,0.14376019993807046,0.02464438709482237,0.1909759957651902,34.081208,-91.945729
22380,"Flagstaff, AZ",163180,0.46625067300107914,0.10811959889111264,0.1402051099032383,0.030543214546227944,0.18738274966050023,35.829692,-111.773728
29420,"Lake Havasu City-Kingman, AZ",144450,0.4733365824785773,0.10437181746275734,0.15112736836387547,0.02652112912515539,0.19131626752678915,35.717705,-113.749689
38060,"Phoenix-Mesa-Scottsdale, AZ",5597420,0.46376231865277673,0.11059556616491228,0.14703124060537956,0.031696968737069946,0.17443854314541493,33.185765,-112.067862
39140,"Prescott, AZ",178020,0.46941807050449735,0.10480771821564948,0.1459290255670687,0.02743045355648184,0.19125087316529735,34.631071,-112.577225
46060,"Tucson, AZ",1109100,0.45926133788649115,0.11143797299386757,0.144314631692046,0.034537509349047646,0.16897122385153,32.128043,-111.783657
49740,"Yuma, AZ",174760,0.46317074829321814,0.0891013693703103,0.14272268053050974,0.02308614294279851,0.20826055544959957,32.773942,-113.910905
12540,"Bakersfield, CA",793890,0.4539350047117049,0.08534592993512151,0.139418515269344,0.026832811998023225,0.20233774750921615,35.346629,-118.729506
17020,"Chico, CA",204980,0.45560886276915136,0.11287719289601848,0.14131528194340193,0.027320771419981286,0.1740956165097496,39.665959,-121.601919
20940,"El Centro, CA",150450,0.4653580517260347,0.09044130545284856,0.1369817625445724,0.025162720305858415,0.21277226342275535,33.040814,-115.3554
23420,"Fresno, CA",982530,0.445306823611194,0.09449447395928634,0.14002300761866124,0.02736341024223963,0.18342593179100677,36.761006,-119.655019
25260,"Hanford-Corcoran, CA",100820,0.450517948417006,0.09176602107831577,0.14301762989138228,0.02706131795581707,0.1886729794914909,36.072478,-119.81553
31080,"Los Angeles-Long Beach-Anaheim, CA",16962300,0.44804457717486545,0.11024723530007938,0.14199385286162014,0.03385156537590183,0.16195192363726404,34.108705,-118.182745
31460,"Madera, CA",108340,0.46158093830680924,0.0823926737606655,0.14707985047684374,0.021990216254359665,0.21011819781494037,37.209821,-119.749802
32900,"Merced, CA",172790,0.46464851031705734,0.09528841555446768,0.1444768452017358,0.02777580348413234,0.1971074460767215,37.194806,-120.722802
33700,"Modesto, CA",482710,0.4567521487982855,0.09586638858287623,0.1443811978500953,0.028001487450373508,0.1885030749149405,37.562316,-121.002831
34900,"Napa, CA",184070,0.46483757449186547,0.100329578469653,0.14390756905382462,0.028197114425382044,0.1924033125430058,38.5071,-122.325904
37100,"Oxnard-Thousand Oaks-Ventura, CA",890330,0.45644909259578437,0.10692106732883573,0.1436929879882704,0.0341866604734651,0.17164837680521314,34.358741,-119.133143
39820,"Redding, CA",187360,0.45639308702400905,0.10517501211044572,0.14138545278346643,0.028171887347522427,0.18166073478257452,40.760514,-122.043556
40140,"Riverside-San Bernardino-Ontario, CA",3799810,0.4542346611708064,0.09715698770684131,0.1426854405722984,0.028499841768986428,0.18589239112268025,34.537534,-116.130921
40900,"Sacramento--Roseville--Arden-Arcade, CA",2586250,0.4459697373415192,0.11226447985188028,0.1404087395381798,0.035114165877359216,0.15818235207409986,38.789678,-121.00575
41500,"Salinas, CA",459530,0.45357462832297474,0.08638945577186624,0.13877720408119373,0.024483977639033996,0.20392399083088075,36.240107,-121.315572
41740,"San Diego-Carlsbad, CA",3958090,0.4483977197364761,0.10987075767208662,0.13953960353839773,0.03541838961069345,0.16356896891529826,33.023604,-116.776117
41860,"San Francisco-Oakland-Hayward, CA",5992800,0.4500938194242611,0.11342006192346868,0.14046996042882415,0.03845697492174585,0.15774682215022243,37.773718,-122.274432
41940,"San Jose-Sunnyvale-Santa Clara, CA",2744200,0.44584563162116325,0.11120667914942345,0.1385486772403587,0.04741750740739052,0.14867276782399058,36.908472,-121.371372
42020,"San Luis Obispo-Paso Robles-Arroyo Grande, CA",294040,0.45821259867849073,0.10712648358624369,0.13896404409572566,0.028415037063500816,0.18370703393302057,35.385224,-120.447544
42100,"Santa Cruz-Watsonville, CA",258190,0.4536368130195294,0.11270738096830168,0.13798667811282278,0.0330392109227886,0.16990354301561636,37.012488,-122.007205
42200,"Santa Maria-Santa Barbara, CA",512700,0.45738406697845724,0.10760017803438456,0.14182487312343006,0.031890499880912165,0.17606851593973047,34.537057,-120.039973
42220,"Santa Rosa, CA",540580,0.45720664689459,0.10532495123246019,0.14169568367413682,0.031609330870357166,0.1785766811176358,38.525182,-122.92611
44700,"Stockton-Lodi, CA",632650,0.45327722812381793,0.09278609844513575,0.1443225958895804,0.0270354917858752,0.18913304200322656,37.934982,-121.272244
46700,"Vallejo-Fairfield, CA",360650,0.45651820828005485,0.10494581010876665,0.1406456493320976,0.03050076497048926,0.18042598386870132,38.267226,-121.939594
47300,"Visalia-Porterville, CA",389890,0.4655634638228295,0.08565624562861596,0.14472987887539215,0.024160665460294425,0.21101667385852696,36.228834,-118.781055
49700,"Yuba City, CA",110270,0.4591565708022848,0.10431458470113669,0.13864410817991923,0.029771562609451234,0.1864263153117776,39.160969,-121.511833
14500,"Boulder, CO",477790,0.45189220636569205,0.12009055985669816,0.1404520178195359,0.04656684871816509,0.1447827799712929,40.09497,-105.397691
17820,"Colorado Springs, CO",747120,0.4496425714469284,0.11517562362761782,0.13951986630251936,0.0369472676497431,0.1579998138670481,38.845507,-104.638728
19740,"Denver-Aurora-Lakewood, CO",3730450,0.4498955226854353,0.11306829137384095,0.13965621330768807,0.03695159463347707,0.1602194233704292,39.434749,-104.901209
22660,"Fort Collins, CO",374300,0.4548543124894188,0.11011560613530448,0.14061636615983736,0.03146438455942588,0.17265795563485115,40.658093,-105.486764
24300,"Grand Junction, CO",172590,0.4566142589775276,0.10769040187241047,0.1423453268675922,0.024482304794111863,0.1820962254434131,39.019421,-108.461893
24540,"Greeley, CO",225020,0.46110877764376046,0.09908784804092369,0.14515106736501365,0.028688371201236032,0.18818149103658713,40.555961,-104.383666
39380,"Pueblo, CO",159270,0.45029324232157286,0.1059264315310708,0.14306686623672143,0.0244100532844091,0.17688989126937157,38.170658,-104.489892
71950,"Bridgeport-Stamford-Norwalk, CT",1288800,0.46022036954122336,0.1201924516632653,0.14245926985516374,0.04067005870432941,0.15689858931846487,41.227413,-73.367061
73450,"Hartford-West Hartford-East Hartford, CT",1711720,0.4588664494574769,0.11640583525808279,0.14464855015518313,0.03928577644039634,0.15852628760381463,41.71865,-72.573919
75700,"New Haven, CT",831270,0.45653228117031075,0.11065047265970694,0.1430815970282118,0.03505764529681156,0.16774256618558045,41.349717,-72.900204
76450,"Norwich-New London-Westerly, CT-RI",385710,0.4587642444216002,0.10917539130902242,0.14075908252611305,0.03227452524408388,0.17655524534238087,41.472652,-72.108634
47900,"Washington-Arlington-Alexandria, DC-VA-MD-WV",8497930,0.44767767788690405,0.11816241131860078,0.13897781329596753,0.04339230221160112,0.1471451510607346,38.816928,-77.448228
20100,"Dover, DE",165650,0.4665330584095958,0.11288188274540714,0.14849128597980163,0.029242127488412078,0.17591776219597494,39.097088,-75.502982
15980,"Cape Coral-Fort Myers, FL",626020,0.4497234975969278,0.10435894316152614,0.14377674778435678,0.02695030102903409,0.1746375056220108,26.559035,-81.891994
18880,"Crestview-Fort Walton Beach-Destin, FL",217620,0.4454815634489807,0.10891144193999135,0.14326270231782112,0.029870411087129203,0.16343700810403902,30.641097,-86.367692
19660,"Deltona-Daytona Beach-Ormond Beach, FL",469400,0.4490741174725159,0.10989982547960132,0.1463687365317111,0.02552114088648356,0.16728441457471996,29.1789,-81.189023
23540,"Gainesville, FL",333850,0.4377581204784323,0.11174386419223388,0.14507501247692584,0.029886637992959608,0.15105260581631302,29.677957,-82.479869
27260,"Jacksonville, FL",1795010,0.44961723817743093,0.11014950159846187,0.14619141336695984,0.031369133576086415,0.16190718963592282,30.234146,-81.756078
29460,"Lakeland-Winter Haven, FL",591510,0.4465989343331223,0.09834526553908104,0.14596977569608727,0.024823018803533388,0.1774608742944206,27.953581,-81.69347
33100,"Miami-Fort Lauderdale-West Palm Beach, FL",7012760,0.45232436460054015,0.1119466087504407,0.14465262441460885,0.029874950020072434,0.16585018141541813,26.101828,-80.478755
34940,"Naples-Immokalee-Marco Island, FL",357530,0.4566230952632243,0.1047329729932536,0.14185617437990672,0.024998393823137847,0.18503555406692615,26.118786,-81.400955
35840,"North Port-Sarasota-Bradenton, FL",766410,0.44943975706360695,0.10770642997452702,0.1446966268891079,0.027860123016294,0.16917657718367807,27.364247,-82.319344
36100,"Ocala, FL",274810,0.4560257558247771,0.10339962742585361,0.14965077636883067,0.024059252328181183,0.1789160997019116,29.202805,-82.0431
36740,"Orlando-Kissimmee-Sanford, FL",3110380,0.4446465655279229,0.10691021305988344,0.14039719898877903,0.030136455506882015,0.16720269797237838,28.434396,-81.356084
37340,"Palm Bay-Melbourne-Titusville, FL",590250,0.4451134263694109,0.10551744864907521,0.14558924566814516,0.03343793983367049,0.16056879221852005,28.298678,-80.700534
37460,"Panama City, FL",198460,0.45495242161364063,0.10377388915485485,0.14604372644096214,0.02593025609718415,0.1792045499206395,30.101095,-85.474971
37860,"Pensacola-Ferry Pass-Brent, FL",451210,0.4519128019114684,0.11073708314850005,0.14916175808691312,0.027691086327829344,0.16432287434822584,30.655401,-87.161828
38940,"Port St. Lucie, FL",374700,0.450445851781196,0.1059890184206877,0.14486029091690394,0.025363941884262248,0.17423260055934212,27.232699,-80.42677
39460,"Punta Gorda, FL",114200,0.4617284764075793,0.10950840296291264,0.15135572180336027,0.02308383521803445,0.17778051642327194,26.868974,-81.941278
42680,"Sebastian-Vero Beach, FL",134570,0.4580821126248821,0.10457278919695279,0.14706100563313718,0.02619152124367207,0.18025679655112004,27.700528,-80.574789
45220,"Tallahassee, FL",477100,0.44741567930137743,0.11955866169782689,0.1428726025958164,0.03633168173969423,0.1486527332680399,30.386425,-84.28041
45300,"Tampa-St. Petersburg-Clearwater, FL",3593720,0.4447149085713863,0.1102743437828515,0.14398971303921512,0.03183552314152187,0.15861532860779778,28.125907,-82.465286
10500,"Albany, GA",175250,0.468740628272349,0.1072964890024347,0.146805151855029,0.028181034850950477,0.18645795256393488,31.589303,-84.174913
12020,"Athens-Clarke County, GA",229150,0.46403963760943784,0.10880911001863477,0.14582788617237852,0.029938673883716224,0.17946396753470828,33.943984,-83.213897
12060,"Atlanta-Sandy Springs-Roswell, GA",7126220,0.46101959506967694,0.1140898008305166,0.14392879654689233,0.035841526042535675,0.16715947164973233,33.693728,-84.399911
12260,"Augusta-Richmond County, GA-SC",611890,0.4616622767557875,0.10351349883016871,0.14745655886813347,0.03085172702039731,0.17984049203708805,33.460371,-81.982833
15260,"Brunswick, GA",121760,0.4710932414612432,0.11278787298895807,0.14381065259001508,0.027735656129521516,0.1867590597527486,31.301739,-81.588909
17980,"Columbus, GA-AL",330750,0.4615096684015431,0.1107179438495522,0.1474533042911202,0.031685718801106974,0.17165270145976375,32.436836,-84.900879
19140,"Dalton, GA",216650,0.44954080162731824,0.08395138743041757,0.15136063524221396,0.025598811597772664,0.18862996735691404,34.796956,-84.856279
23580,"Gainesville, GA",209800,0.4762958953277261,0.09773780443724861,0.1578807131771558,0.028260367534304345,0.19241701017901738,34.317569,-83.8185
25980,"Hinesville, GA",39660,0.4654916746734167,0.10806312641643369,0.14109786332891278,0.02840940595148661,0.18792127897658362,31.778788,-81.57648
31420,"Macon, GA",288790,0.46314101652035433,0.11170297041499187,0.1490829070041575,0.028962209227232347,0.17339292987397256,32.856216,-83.714305
40660,"Rome, GA",110140,0.46768114908584923,0.10761108828092843,0.14866366696503475,0.02778049253569714,0.18362590130418893,34.263692,-85.213685
42340,"Savannah, GA",447930,0.4683556029380849,0.10710128608699182,0.14467039191708053,0.028858934143347233,0.18772499079066535,32.109153,-81.273107
46660,"Valdosta, GA",157850,0.4723944470556345,0.10487711356909775,0.14875647622370577,0.02598116894584231,0.1927796883169887,30.829645,-83.24064
47580,"Warner Robins, GA",151760,0.4374817608494307,0.09528069923019185,0.13497961716093818,0.03150565684417365,0.17571578761412698,32.401594,-83.635095
46520,"Urban Honolulu, HI",1273020,0.4480117696563525,0.1098959453995964,0.13643542354554067,0.032323619489455474,0.16935678122175987,21.580023,-158.123406
11180,"Ames, IA",115000,0.44933629674462483,0.10837034223808283,0.1456499403196695,0.027998772696248828,0.16731724149062369,42.037538,-93.466093
16300,"Cedar Rapids, IA",397630,0.4578564375045652,0.1070040025563287,0.14763858663134605,0.03455177172081038,0.16866207659608007,42.086329,-91.631144
19340,"Davenport-Moline-Rock Island, IA-IL",544440,0.4487388895838341,0.09957304369380986,0.14515086694654866,0.029327465141315255,0.17468751380216033,41.39168,-90.460076
19780,"Des Moines-West Des Moines, IA",969520,0.4540182910595911,0.11633106137098542,0.1454653852034031,0.03503272186628724,0.15718912261891532,41.54486,-93.943487
20220,"Dubuque, IA",146610,0.4624015294169225,0.10393362625120421,0.15036636705866344,0.027036331702739388,0.18106520440431545,42.463481,-90.878771
26980,"Iowa City, IA",231000,0.4454488817800797,0.11383390927566621,0.1438352841298543,0.028903266282995332,0.15887642209156383,41.517806,-91.64793
43580,"Sioux City, IA-NE-SD",209450,0.45757923768282627,0.10446998806019342,0.14764235553390503,0.02835568008334588,0.17711121400538196,42.580634,-96.376047
47940,"Waterloo-Cedar Falls, IA",252570,0.4591697758346538,0.09938437264101858,0.14834950163248317,0.027129849025295374,0.18430605253585666,42.536796,-92.471608
14260,"Boise City, ID",827440,0.4564555023583371,0.11283327332089142,0.14288837920192318,0.033712022806001,0.16702182702952154,43.006648,-116.141909
17660,"Coeur d'Alene, ID",162640,0.4677652062466229,0.11300719985968696,0.1466820943643109,0.028533260414255218,0.1795426516083698,47.675966,-116.695922
26820,"Idaho Falls, ID",144370,0.45586441232162433,0.1064229051645025,0.13962987553848333,0.029576038353523848,0.18023559326511468,43.620423,-112.420919
30300,"Lewiston, ID-WA",68660,0.44592030102897273,0.10822315935775018,0.13962470729988855,0.027338089140221435,0.1707343452311126,46.251696,-116.925017
38540,"Pocatello, ID",95730,0.45658939253452147,0.1118805621544011,0.1384384541830189,0.028754839097491047,0.17751553709961046,42.692921,-112.228982
14010,"Bloomington, IL",233780,0.4417315683099232,0.10609177916971493,0.14164571663918352,0.031210690184984635,0.16278338231604014,40.405593,-88.861307
16580,"Champaign-Urbana, IL",279250,0.44679461257048936,0.1056400417195823,0.14313434527168864,0.028828363899417425,0.16919186167980102,40.234489,-88.298623
16980,"Chicago-Naperville-Elgin, IL-IN-WI",13341630,0.4427603500162035,0.1029001684234967,0.14164422172062235,0.03286671978620767,0.16534924008587684,41.823521,-87.828297
19180,"Danville, IL",77640,0.4429842837671965,0.0982513296014179,0.14445061862596872,0.023330044779234567,0.17695229076057534,40.186754,-87.726778
19500,"Decatur, IL",148940,0.43098055129698426,0.0990801741671911,0.13786855521676863,0.027254199691409624,0.1667776222216149,39.860237,-88.961529
28100,"Kankakee, IL",111190,0.4307105598439024,0.09587152349131636,0.13867417844868796,0.025615916516841673,0.17054894138705642,41.13951,-87.861117
37900,"Peoria, IL",521990,0.4431740369817765,0.09928655677827604,0.14279831937470436,0.028327194263259706,0.17276196656553638,40.788255,-89.514745
40420,"Rockford, IL",448950,0.45243742749316984,0.08917650193139688,0.15067920993596817,0.027100981840771594,0.18548073378503319,42.331183,-89.042914
44100,"Springfield, IL",305980,0.4383417128645408,0.11906508475576716,0.1417020702129336,0.03263606851996967,0.14493848937587042,39.828565,-89.696205
14020,"Bloomington, IN",207000,0.4542872183031662,0.10139292740510313,0.14763443328853462,0.026407178613495872,0.17885267899603258,39.241736,-86.671754
18020,"Columbus, IN",121860,0.46852537362207014,0.09040488925837199,0.160520612368177,0.02800056562264395,0.18959930637287717,39.205843,-85.897999
21140,"Elkhart-Goshen, IN",365000,0.472043535847341,0.075245056068518,0.1640767729335912,0.023627380043045404,0.20909432680218637,41.600693,-85.863986
21780,"Evansville, IN-KY",505830,0.4627236546699478,0.09376028092690822,0.15051913493291705,0.028686416189993326,0.18975782262012922,38.02007,-87.586166
23060,"Fort Wayne, IN",626670,0.46769475250153336,0.10257536582658092,0.15101902430469533,0.030668355225738776,0.18343200714451832,41.006999,-85.216424
26900,"Indianapolis-Carmel-Anderson, IN",2679030,0.45685581615311466,0.10540055462135521,0.1460177950681127,0.031621038500689876,0.1738164279629569,39.74867,-86.212382
29020,"Kokomo, IN",113360,0.45902720713180367,0.10334713320366694,0.14731304060531344,0.025113610572508265,0.183253422750315,40.483537,-86.114118
29200,"Lafayette-West Lafayette, IN",234260,0.472642066691777,0.1012644439778739,0.15556318923463042,0.02729448327268949,0.18851995020658321,40.514717,-86.930475
33140,"Michigan City-La Porte, IN",123100,0.46808271232355664,0.09703158613113491,0.15303205585899987,0.02476530943163776,0.19325376090178414,41.549013,-86.744739
34620,"Muncie, IN",131670,0.4615409468553334,0.1091273648351325,0.14740471316783613,0.027436500229313807,0.177572368623051,40.227543,-85.399262
43780,"South Bend-Mishawaka, IN-MI",394290,0.45998651171984073,0.10641998557127452,0.1474829865418197,0.030284002256402244,0.17579953735034423,41.774981,-86.123014
45460,"Terre Haute, IN",198500,0.4595641774645215,0.09737723154837226,0.14925005259466795,0.02545979761614411,0.1874770957053372,39.392389,-87.347096
29940,"Lawrence, KS",131750,0.46738799237117334,0.11701551407852408,0.1431361397468998,0.030736910413366257,0.1764994281323832,38.896417,-95.290947
45820,"Topeka, KS",318660,0.4539813325203555,0.11133991304567713,0.1429055805190896,0.03443287811603912,0.16530296083954965,39.041389,-95.802639
48620,"Wichita, KS",898840,0.4650226211982497,0.1022206199600984,0.14951604827145185,0.033580152995892135,0.17970579997080732,37.629831,-97.398832
14540,"Bowling Green, KY",165760,0.4663749779113022,0.10255209059871323,0.15010232253262004,0.027591043708183063,0.18612952107178585,37.046821,-86.397068
21060,"Elizabethtown-Fort Knox, KY",127080,0.446989942663744,0.09447699615751778,0.1428608542144028,0.026090828635642063,0.1835612636561813,37.73298,-85.972171
30460,"Lexington-Fayette, KY",734170,0.45743568375830856,0.10247975943899787,0.14660334158296903,0.03120370415001304,0.1771488785863286,38.102876,-84.438545
31140,"Louisville/Jefferson County, KY-IN",1832700,0.45752828711399757,0.10078164308124102,0.14800406197307217,0.03044080468827757,0.1783017773714068,38.33524,-85.668941
36980,"Owensboro, KY",138370,0.46001165572317304,0.09709891088129866,0.14893462605373445,0.026516617614332633,0.18746150117380736,37.693723,-87.077058
10780,"Alexandria, LA",176160,0.45310138837066316,0.10281426568922228,0.14043952999370335,0.027324545604052394,0.18252304708368514,31.325348,-92.546803
12940,"Baton Rouge, LA",1090610,0.45096551419668984,0.10022349435559902,0.142632316673663,0.031002539627818435,0.17710716353960937,30.57089,-91.134533
26380,"Houma-Thibodaux, LA",273940,0.4564198831844232,0.087166512526514,0.14579446951718444,0.024246498579734613,0.19921240256099015,29.33413,-90.843674
29180,"Lafayette, LA",426770,0.4515301701502376,0.1005311041769518,0.14661483470945333,0.02684450148456752,0.17753972977926497,29.957773,-92.04935
29340,"Lake Charles, LA",255120,0.45767751782080424,0.09566553757871517,0.14846248503592355,0.025444112611292674,0.18810538259487286,29.978755,-93.253243
33740,"Monroe, LA",223710,0.45334116458549256,0.10431716458059959,0.14440478060643483,0.027477795603277805,0.17714142379518033,32.690477,-92.262793
35380,"New Orleans-Metairie, LA",1523150,0.4468625908222803,0.10366174784731938,0.1413481514977787,0.029746296266992687,0.1721063952101895,29.805532,-89.701382
43340,"Shreveport-Bossier City, LA",513990,0.4555832775737879,0.10294943746835467,0.1448886159160817,0.028146247941383377,0.1795989762479682,32.490638,-93.671191
70900,"Barnstable Town, MA",284820,0.46173348003645187,0.11130309646323379,0.1386184117541388,0.03078794767860453,0.18102402414047478,41.799014,-70.21188
71650,"Boston-Cambridge-Nashua, MA-NH",7288920,0.4575829792955042,0.11804511061068895,0.14455099092405785,0.04103824050060262,0.15394863726015479,42.517606,-71.021993
76600,"Pittsfield, MA",91900,0.46098286854384285,0.11562119481261682,0.14122694536756555,0.03324456540148318,0.1708901629621773,42.371493,-73.217928
78100,"Springfield, MA-CT",882850,0.46033137168852256,0.10729835891395215,0.14418463157438377,0.03334793060715498,0.17550045059303168,42.2478,-72.632108
79600,"Worcester, MA-CT",727250,0.46397959500281927,0.11463860418963764,0.14591769630774204,0.03550321385281725,0.16792008065262237,42.217311,-71.925535
12580,"Baltimore-Columbia-Towson, MD",3861590,0.45203466488290034,0.11258390612436851,0.14133405819749384,0.03613069923164201,0.16198600132939597,39.304361,-76.549501
19060,"Cumberland, MD-WV",102100,0.46581787961771365,0.10532306304904555,0.15110375486782562,0.02537371518608213,0.18401734651476037,39.532185,-78.807082
25180,"Hagerstown-Martinsburg, MD-WV",288630,0.46049406011885163,0.10285992293426302,0.15041201751870742,0.0278102671052452,0.17941185256063602,39.542152,-77.899767
41540,"Salisbury, MD-DE",151350,0.4617524143570124,0.11418677055801021,0.14370563501181413,0.030716003859793208,0.17314400492739487,38.399521,-75.478262
70750,"Bangor, ME",180980,0.46138937561844096,0.11210560579484964,0.1432040674276892,0.03056175842794781,0.1755179439679543,45.409284,-68.666616
74650,"Lewiston-Auburn, ME",139950,0.4688672491896687,0.11478374445837208,0.14937946843486427,0.028695344089782197,0.17600869220665016,44.167681,-70.207435
76750,"Portland-South Portland, ME",589370,0.45824747290781953,0.11293907791366313,0.14272569653626604,0.033756180744721184,0.16882651771316912,43.651417,-70.418375
11460,"Ann Arbor, MI",522380,0.4493224305355504,0.11557851492935092,0.14373931367558773,0.0362473740461883,0.15375722788442342,42.252217,-83.843423
12980,"Battle Creek, MI",150890,0.44642661165649383,0.10465519892973495,0.1433767932608937,0.0309699383621153,0.16742468110374986,42.24299,-85.012385
13020,"Bay City, MI",98750,0.4507743053634884,0.10385485785470264,0.14244289372894892,0.025057525385338612,0.17941902839449822,43.699711,-83.978701
19820,"Detroit-Warren-Dearborn, MI",5741050,0.45053977407333134,0.10560666780603324,0.14420695750158327,0.03301304018847362,0.16771310857724123,42.721848,-83.200846
22420,"Flint, MI",409330,0.4474811170141787,0.10810012664051706,0.14143098272792293,0.027953279943431386,0.1699967277023073,43.021077,-83.706372
24340,"Grand Rapids-Wyoming, MI",1135320,0.4461469472187849,0.09817310031900184,0.14637888785082392,0.028651926672356512,0.1729430323766026,42.978632,-85.811208
27100,"Jackson, MI",153980,0.45033800013972514,0.10393102242157479,0.14414886400079843,0.029695737278540357,0.1725623764388116,42.248474,-84.420868
28020,"Kalamazoo-Portage, MI",404620,0.44321566140393676,0.10164986879339391,0.14184855898820575,0.028298577192863376,0.1714186564294737,42.268871,-86.037373
29620,"Lansing-East Lansing, MI",600700,0.45392865446077946,0.1140543844827642,0.1458786576502969,0.03183963879153098,0.1621559735361874,42.713659,-84.605372
33780,"Monroe, MI",112700,0.4545798968667447,0.09566365539281371,0.143942791341689,0.025167295458850235,0.1898061546733918,41.916097,-83.487106
34740,"Muskegon, MI",176730,0.4533304734929475,0.0988847373171343,0.1486518134523172,0.026939336958737764,0.17885458576475824,43.289258,-86.751892
35660,"Niles-Benton Harbor, MI",176980,0.4513039706611889,0.10459249166631912,0.1454548573564522,0.030554254381287,0.17070236725713056,41.791382,-86.742543
40980,"Saginaw, MI",229720,0.4558941385231797,0.10785652978376278,0.14573220367713183,0.029340728125860464,0.17296467693642462,43.328267,-84.05541
20260,"Duluth, MN-WI",368810,0.44589693296621347,0.10054520934059759,0.13876090506159877,0.028989428575547017,0.17760138998847005,47.329703,-92.37627
33460,"Minneapolis-St. Paul-Bloomington, MN-WI",5320230,0.44138975146762216,0.10876072361129942,0.13967358034848093,0.035834549579524366,0.15712089792831743,45.060982,-93.351369
40340,"Rochester, MN",290010,0.44839645613838464,0.10243519710538493,0.14436615510345763,0.030400888911154472,0.17119421501838764,43.949636,-92.33607
41060,"St. Cloud, MN",291000,0.44593376951756836,0.09840837723706827,0.14368049123625098,0.027703207456382432,0.17614169358786672,45.593031,-94.488363
17860,"Columbia, MO",240830,0.4634826191155642,0.11754210344911593,0.14799853973897203,0.030493219972999544,0.16744875595447675,38.989861,-92.310202
27620,"Jefferson City, MO",203810,0.45583285779676164,0.11297964408644315,0.14706887966025345,0.03297705130317678,0.16280728274688824,38.637121,-92.089227
27900,"Joplin, MO",229270,0.4611015482078729,0.09162553349305046,0.1523306185873297,0.02386624470168308,0.19327915142580965,37.055546,-94.339736
28140,"Kansas City, MO-KS",3034990,0.45741789755488155,0.11001121521088462,0.1468951302214387,0.034423427824956276,0.16608812429760195,38.931849,-94.443824
41140,"St. Joseph, MO-KS",145600,0.46588087009325696,0.10087304169909768,0.1521477291772002,0.025397938127669356,0.1874621610892897,39.834843,-94.783754
41180,"St. Louis, MO-IL",4009940,0.4540232586357282,0.1080497712308962,0.1452761855932237,0.03246582462150725,0.168231477190101,38.740372,-90.345956
44180,"Springfield, MO",572650,0.4609960675367382,0.10924204186815717,0.14951711380497895,0.02875067111139056,0.17348624075221153,37.36087,-93.180262
25060,"Gulfport-Biloxi-Pascagoula, MS",310970,0.4676567114047668,0.10286897166555833,0.1494003552698303,0.02989563748679837,0.1854917469825798,30.430245,-88.979736
25620,"Hattiesburg, MS",163870,0.4677848738926549,0.1090311755243137,0.14909879213806668,0.028113529369365883,0.1815413768609086,31.188441,-89.232741
27140,"Jackson, MS",748220,0.4697501068225826,0.1118854386203142,0.1494733434397418,0.033364168806080625,0.17502715595644597,32.316001,-90.22084
13740,"Billings, MT",232830,0.462434661056007,0.10910957795772556,0.14533550110677906,0.02938452688284139,0.17860505510866098,45.775175,-108.726537
24500,"Great Falls, MT",99310,0.4621164211436354,0.10701032142580462,0.14633979684527817,0.028820499280790005,0.17994580359176257,47.316575,-111.350262
33540,"Missoula, MT",158020,0.47090535959687585,0.11460080300432501,0.14968093119531348,0.029375171779538245,0.1772484536176991,47.027263,-113.892691
11700,"Asheville, NC",516510,0.4654744048765723,0.10397190637666043,0.14532777234449168,0.02938518501122188,0.18678954114419835,35.595669,-82.681615
15500,"Burlington, NC",170320,0.46182468782629693,0.09668073503426877,0.1503701028073049,0.025564411518494472,0.18920943846622876,36.043954,-79.400573
16740,"Charlotte-Concord-Gastonia, NC-SC",2619190,0.46119416079885095,0.10903726995964966,0.14476182167476517,0.03443365749871645,0.17296141166571966,35.187295,-80.867491
20500,"Durham-Chapel Hill, NC",817600,0.44742014839971944,0.11351598098210684,0.14307013119281634,0.04216338836769633,0.1486706478570999,35.995536,-79.09699
22180,"Fayetteville, NC",364540,0.4506846532110347,0.1027409683283857,0.1392382979638926,0.027457039401970813,0.18124834751678556,35.037956,-78.982209
24140,"Goldsboro, NC",112040,0.47076807467235987,0.10192537215239585,0.14584255116969808,0.02374095979690093,0.19925919155336502,35.35419,-78.00867
24660,"Greensboro-High Point, NC",1094510,0.46333167909231066,0.10186157146784773,0.14910836337781497,0.030056014922554206,0.1823057293240937,36.025204,-79.792633
24780,"Greenville, NC",210250,0.45900559899863,0.10911878865962686,0.13956445564177372,0.0283295710564328,0.1819927836407966,35.59249,-77.372739
25860,"Hickory-Lenoir-Morganton, NC",466550,0.46874382463055597,0.08654925929240519,0.15297571707368038,0.025295770811907342,0.2039230774525631,35.814611,-81.457066
27340,"Jacksonville, NC",119870,0.468967629894356,0.11288689833859535,0.14476651050444755,0.024434532468853097,0.18687968858246,34.763109,-77.499469
39580,"Raleigh, NC",1495400,0.4612187900663595,0.11341157997154003,0.1413200437195842,0.03813458953286693,0.16835257684236837,35.756746,-78.460441
40580,"Rocky Mount, NC",170540,0.4742181032383339,0.09894600874946312,0.15223989013011488,0.02708953908496138,0.19594266527379456,35.941045,-77.798549
48900,"Wilmington, NC",422940,0.4631382846664347,0.10869968137664572,0.13991564669734974,0.02952178110926095,0.1850011754831783,34.426033,-77.889634
49180,"Winston-Salem, NC",631480,0.458625593794861,0.10463876742158634,0.14609754088916274,0.030827636846975093,0.1770616486371368,36.078852,-80.345064
13900,"Bismarck, ND",167470,0.46242190773037994,0.11587525416859273,0.14601991794662467,0.03195966276232023,0.16856707285284236,46.726594,-100.996096
22020,"Fargo, ND-MN",342970,0.4621165046063762,0.10947174835001472,0.14754074342476758,0.0306058994779965,0.1744981133535974,46.914859,-96.960183
24220,"Grand Forks, ND-MN",137940,0.4569448992823736,0.10612818466983322,0.1419006263843014,0.027197565757259345,0.18171852247097964,47.835929,-96.842681
30700,"Lincoln, NE",482690,0.4609639639167743,0.11148035928694036,0.15104602265156603,0.03200445982729057,0.16643312215097733,40.817458,-96.868743
36540,"Omaha-Council Bluffs, NE-IA",1364320,0.45338893611835307,0.10717296069833039,0.14599945144071402,0.03265705727003592,0.16755946670927277,41.290459,-95.99997
74950,"Manchester, NH",300930,0.443284968063127,0.11319409668022207,0.14000557304825656,0.03442354825785865,0.15566175007678976,42.911532,-71.723055
12100,"Atlantic City-Hammonton, NJ",428030,0.4484523104857658,0.09962310131945018,0.1432577142300252,0.026345277152503864,0.17922621778378656,39.469355,-74.633759
36140,"Ocean City, NJ",114350,0.45181649708563804,0.10687099260756625,0.14030411502179085,0.025174279686602165,0.17946710976967878,39.086141,-74.84771
45940,"Trenton, NJ",650170,0.4405585004918886,0.11988251148484316,0.14161977809106924,0.040126540646143516,0.13892967026983272,40.282503,-74.703724
47220,"Vineland-Bridgeton, NJ",169050,0.4489532714612525,0.09532900103063979,0.14744898144901902,0.026266460170667576,0.17990882881092615,39.328434,-75.121628
10740,"Albuquerque, NM",1165310,0.4571217933119234,0.11051335978730373,0.14130582442168818,0.032987254321950536,0.17231535478098095,35.123496,-106.458392
22140,"Farmington, NM",147340,0.4616008574058821,0.09465094950796626,0.14071104543632007,0.025728047693440653,0.20051081476815505,36.511624,-108.324578
29740,"Las Cruces, NM",184420,0.45865257908443513,0.10817508890893147,0.1380268539567558,0.031578291334824996,0.18087234488392287,32.349919,-106.834968
42140,"Santa Fe, NM",181480,0.45682101125028635,0.12139213560182771,0.13518564779278058,0.0338355842897563,0.16640764356592175,35.51453,-105.963972
16180,"Carson City, NV",79750,0.4626316977044137,0.1156757024575867,0.15838411111115674,0.027877920979718647,0.16069396315595166,39.15306,-119.747379
29820,"Las Vegas-Henderson-Paradise, NV",2762050,0.4547953130685529,0.09746549786192862,0.14385392386220425,0.02498639911189582,0.1884894922325242,36.214257,-115.013812
39900,"Reno, NV",617310,0.45354619130818113,0.09978809669341288,0.14662613446974038,0.026211724582934654,0.18092023556209325,40.500795,-119.731161
10580,"Albany-Schenectady-Troy, NY",1288370,0.4503821963624246,0.11670587561598242,0.14327515435863517,0.036976607489512966,0.153424558898294,42.78792,-73.942348
13780,"Binghamton, NY",320570,0.4641233639709555,0.11094253215009436,0.14964045789096608,0.0324686864402752,0.17107168748961982,42.163928,-76.022943
15380,"Buffalo-Cheektowaga-Niagara Falls, NY",1601190,0.452571695239368,0.1098109082481211,0.14497721442495398,0.032474410018069146,0.16530916254822373,43.044371,-78.777335
21300,"Elmira, NY",104170,0.46555592616823005,0.10295939930626384,0.1530450116475659,0.030059732161323155,0.1794917830530771,42.15528,-76.747179
24020,"Glens Falls, NY",151280,0.45778339630030984,0.10175048595373289,0.1462766882006291,0.028776514093261013,0.18097970805268684,43.44045,-73.636757
27060,"Ithaca, NY",135440,0.45069954630642217,0.11871725537825269,0.14217222157004167,0.037318122247100044,0.15249194711102776,42.453006,-76.473483
28740,"Kingston, NY",170550,0.4612643849384343,0.11136244454467913,0.14356833043659126,0.031370478210683506,0.17496313174648043,41.947212,-74.265458
35620,"New York-Newark-Jersey City, NY-NJ-PA",24802090,0.45380743384193467,0.11754959791157726,0.14206991826948562,0.03700849756550528,0.15717942009536648,40.898788,-73.90313
40380,"Rochester, NY",1481390,0.4518727734350625,0.10782839183632678,0.14305477665404437,0.036103245066656874,0.16488635987803446,43.148038,-77.523257
45060,"Syracuse, NY",918860,0.45692503266326034,0.10803884048311435,0.14586894024816538,0.032803330185212434,0.17021392174676822,43.006516,-76.196134
46540,"Utica-Rome, NY",372000,0.4556214900988561,0.10913908475699476,0.14746511384826821,0.032350999944476946,0.16666629154911622,43.33228,-75.173189
10420,"Akron, OH",989030,0.45431313093045544,0.10486411477851464,0.14590829165305785,0.03169607804548737,0.1718446464533956,41.146639,-81.35011
15940,"Canton-Massillon, OH",506280,0.45716925523357177,0.09812454361399484,0.1471592431774849,0.028093910843267296,0.18379155759882468,40.711072,-81.261474
17140,"Cincinnati, OH-KY-IN",3077590,0.4538513328617504,0.10515230235410651,0.14613270430604464,0.03289226628347987,0.1696740599181194,39.069458,-84.427153
17460,"Cleveland-Elyria, OH",3137690,0.4551584050177449,0.10535422187480308,0.14733328683194086,0.03209435642027075,0.1703765398907302,41.760392,-81.724217
18140,"Columbus, OH",2773180,0.4525062350295185,0.10801674852295741,0.14596664190052297,0.034062560778818377,0.1644602838272197,39.968562,-82.835911
19380,"Dayton, OH",1153410,0.44930016865867295,0.10257727810719663,0.14544955927276712,0.03397103137351841,0.1673022999051908,39.828854,-84.141813
30620,"Lima, OH",149880,0.45576825160527334,0.09767523006147029,0.14714851288905595,0.025110136202411704,0.1858343724523354,40.771627,-84.106103
31900,"Mansfield, OH",152560,0.4617132542987429,0.09683998530007337,0.1481111387409378,0.027815069168741074,0.1889470610889906,40.774159,-82.542781
44220,"Springfield, OH",139510,0.4613234670511984,0.09640443545758604,0.14981020418567959,0.02564703113132036,0.18946179627661242,39.917032,-83.783676
45780,"Toledo, OH",931130,0.45363963804513563,0.09787818581734513,0.14623204571145257,0.029031015613978136,0.18049839090235978,41.544357,-83.690777
49660,"Youngstown-Warren-Boardman, OH-PA",685400,0.45228428197806214,0.09882260089978905,0.14442993975231688,0.02698280201345108,0.1820489393125051,41.23646,-80.561784
30020,"Lawton, OK",111010,0.4651641687821599,0.11441248061256842,0.15046460008893933,0.027618609247379192,0.17266847883327296,34.52911,-98.430917
36420,"Oklahoma City, OK",1694650,0.46525404022635053,0.11249191257349281,0.14879876001067574,0.03346181126508038,0.17050155637710163,35.430968,-97.506966
46140,"Tulsa, OK",1287090,0.4673839961178147,0.10747065354312577,0.15090583174180638,0.03350069832604261,0.17550681250683992,36.254429,-96.177329
13460,"Bend-Redmond, OR",196240,0.45867567923283714,0.10880600451497079,0.14267632302631889,0.029043964009896457,0.178149387681651,43.915118,-121.225575
18700,"Corvallis, OR",90690,0.4022734935001997,0.09764647779274568,0.12688856247623603,0.028912855564391146,0.14882559766682682,44.493882,-123.424664
21660,"Eugene, OR",438090,0.442128861112961,0.10065523616118048,0.13976617222643675,0.028942536552089428,0.17276491617325437,43.928329,-122.89769
32780,"Medford, OR",238840,0.4433615229376957,0.1053924993008779,0.13961525323321844,0.027005890320703732,0.17134788008289567,42.411628,-122.675685
38900,"Portland-Vancouver-Hillsboro, OR-WA",3093890,0.4458075379127306,0.10595305469456372,0.1408330691494742,0.03340886071998562,0.16561255334870706,45.60062,-122.484346
41420,"Salem, OR",442510,0.45289499625603413,0.10646194389622757,0.14264022975507798,0.02954461321626778,0.1742482093884608,44.903385,-122.901757
10900,"Allentown-Bethlehem-Easton, PA-NJ",1003360,0.4653873722458399,0.10797873578691236,0.15031213271208943,0.03111764726856564,0.17597885647827252,40.789339,-75.398158
11020,"Altoona, PA",168570,0.4712103820874949,0.10798605708353386,0.15176780952690216,0.02726997803078101,0.18418653744627783,40.497922,-78.310636
21500,"Erie, PA",374230,0.4705232065630121,0.10886201382361761,0.14928477249265715,0.03052083992438076,0.1818555803223566,42.117952,-80.096386
25420,"Harrisburg-Carlisle, PA",931630,0.4696477395327531,0.11458105027360578,0.15313944514512065,0.034366385128833776,0.16756085898519288,40.335915,-77.05049
27780,"Johnstown, PA",163880,0.45926996555185945,0.10858707797367143,0.15016296045004762,0.02809545101773331,0.17242447611040712,40.510222,-78.710478
29540,"Lancaster, PA",689240,0.46704288167457436,0.09924599687859705,0.15200698686603337,0.028186243508481586,0.18760365442146237,40.041992,-76.250198
30140,"Lebanon, PA",133750,0.4598056940702128,0.0952444694262161,0.1510783682431154,0.025294551876676216,0.1881883045242051,40.371559,-76.46487
37980,"Philadelphia-Camden-Wilmington, PA-NJ-DE-MD",8097200,0.4598035407783751,0.1158809700786358,0.14677532431123835,0.03541287043842348,0.1617343759500775,39.894936,-75.311955
38300,"Pittsburgh, PA",3323110,0.4643981460273111,0.11175399903018778,0.14905839229018794,0.03339538695429917,0.17019036775263624,40.434338,-79.828061
39740,"Reading, PA",489940,0.4692261037973454,0.10398749880879594,0.15120729325013807,0.029600379689861626,0.18443093204854977,40.413957,-75.92686
42540,"Scranton--Wilkes-Barre--Hazleton, PA",760600,0.46555784185869586,0.10619980036823776,0.15118655029056433,0.02926854025639819,0.1789029509434956,41.322881,-75.898188
44300,"State College, PA",181120,0.4683232158967877,0.10960842917504986,0.14351872804770235,0.0328089623330282,0.1823870963410073,40.909128,-77.847877
48700,"Williamsport, PA",144290,0.47182909274039053,0.10584606487511757,0.15517973578918504,0.027791797455017794,0.18301149462107014,41.343882,-77.055262
49620,"York-Hanover, PA",525950,0.4708335599617752,0.09507169791663343,0.1541012833925736,0.02757673159496519,0.19408384705760298,39.921751,-76.728889
77200,"Providence-Warwick, RI-MA",1686440,0.453104647593469,0.10824649537540369,0.14297593607083914,0.032357229518169224,0.16952498662905696,41.706831,-71.286637
16700,"Charleston-North Charleston, SC",862900,0.4681199961242423,0.10705612537965875,0.14852958430942495,0.032159385136364016,0.18037490129879463,33.021989,-80.012043
17900,"Columbia, SC",1033590,0.4620623217312618,0.10948948771211772,0.1490334523055413,0.03413244587472036,0.16940693583888244,34.077585,-81.037845
22500,"Florence, SC",242090,0.462289996617832,0.09937670133845962,0.14831689089978572,0.028721427983495168,0.18587497639609152,34.154902,-79.80759
24860,"Greenville-Anderson-Mauldin, SC",914860,0.4662184526094957,0.1047072738560489,0.1515530372468354,0.03270247509642206,0.17725566641018933,34.683709,-82.413423
34820,"Myrtle Beach-Conway-North Myrtle Beach, SC-NC",348260,0.4733416627651641,0.1051106691964514,0.1452896484553153,0.023782705491290516,0.19915863962210684,33.969095,-78.612724
43900,"Spartanburg, SC",358070,0.4715257166369977,0.09273298400377747,0.15747804504152454,0.02910143688366856,0.19221325070802714,34.83462,-81.842401
44940,"Sumter, SC",100530,0.4725597226384611,0.09575504167000275,0.15260242118586828,0.02601626164462683,0.19818599813796323,33.91614,-80.382376
39660,"Rapid City, SD",174160,0.4733100146757122,0.10959622494053414,0.14919353954058592,0.029299979918937746,0.1852202702756544,44.195108,-102.916612
43620,"Sioux Falls, SD",397100,0.47119417849800316,0.11367067288148093,0.155496714606265,0.032142305869977225,0.16988448514028,43.49542,-96.995339
16860,"Chattanooga, TN-GA",689750,0.4616856883473168,0.10383560261092335,0.15110223757892297,0.028973719130302,0.1777741290271685,35.049361,-85.361158
17300,"Clarksville, TN-KY",219700,0.45833833934271256,0.10205613346176046,0.14980433162547888,0.028946536662863256,0.17753133759260997,36.749207,-87.558283
17420,"Cleveland, TN",100580,0.45814675250854947,0.09806550726147792,0.15005378201861938,0.026157789683825337,0.18386967354462685,35.138117,-84.655079
27180,"Jackson, TN",164600,0.4618976184443725,0.10068965268674829,0.1489220501906361,0.02672386952044902,0.1855620460465391,35.610937,-88.853902
27740,"Johnson City, TN",220560,0.45341546394298926,0.10269953226637808,0.1456546014355406,0.027169905718528106,0.17789142452254245,36.265822,-82.332693
28700,"Kingsport-Bristol-Bristol, TN-VA",339770,0.4644498502776052,0.09980331201905154,0.15147767538698914,0.02738326082018712,0.18578560205137742,36.604161,-82.440145
28940,"Knoxville, TN",988610,0.4633301299162555,0.10588686890350102,0.14844728351558723,0.030573251805437126,0.17842272569173012,36.044462,-84.136114
32820,"Memphis, TN-MS-AR",1858780,0.4582801819132263,0.09874876912390468,0.1466644626421189,0.02903607278431613,0.18383087736288656,35.008557,-89.821816
34100,"Morristown, TN",134930,0.47377192782804045,0.08496483268896005,0.15917484587642605,0.0237634153608021,0.20586883390185226,36.115484,-83.376546
34980,"Nashville-Davidson--Murfreesboro--Franklin, TN",2289810,0.4605683413893553,0.10729526033274649,0.14635135837964058,0.0316844794113285,0.1752372432656397,36.091577,-86.72298
10180,"Abilene, TX",177510,0.46441213253192426,0.11160746269236062,0.14525648807769684,0.028591472699959895,0.17895670906190694,32.452022,-99.718743
11100,"Amarillo, TX",307100,0.46949389419503584,0.1134215018968743,0.14940882625006355,0.028798403545682527,0.17786516250241544,35.247897,-101.908638
12420,"Austin-Round Rock, TX",2235220,0.462973369777598,0.12251040701887517,0.1428960505174869,0.04275277451972339,0.1548141377215126,30.239513,-97.69127
13140,"Beaumont-Port Arthur, TX",466340,0.45835339710076706,0.09708295792111107,0.14312208868991155,0.028415286729928914,0.1897330637598155,30.347833,-94.120371
15180,"Brownsville-Harlingen, TX",359090,0.45944387352559934,0.10737786292978517,0.13717633759596282,0.0272670981547993,0.18762257484505204,26.102923,-97.478958
17780,"College Station-Bryan, TX",250230,0.46599941418900803,0.11641588320724729,0.14750594250878019,0.030975881136545126,0.17110170733643543,30.754392,-96.488537
18580,"Corpus Christi, TX",504720,0.45896048835528,0.10575721072688127,0.14317270113113642,0.028423798070061297,0.18160677842720105,27.898931,-97.401236
19100,"Dallas-Fort Worth-Arlington, TX",8633310,0.4614693226503043,0.11242062259933364,0.14674985535932358,0.03548048750472005,0.16681835718692706,32.822558,-97.025131
21340,"El Paso, TX",794590,0.4546695437404752,0.10692826515714703,0.1409785613915766,0.030109546707935773,0.1766531704838158,31.527394,-105.521333
26420,"Houston-The Woodlands-Sugar Land, TX",7572060,0.4591878760453766,0.10601288319927411,0.14586727140236944,0.03402200172852653,0.1732857197152065,29.749593,-95.353642
28660,"Killeen-Temple, TX",349400,0.45139873250345786,0.10420997443705377,0.14031290181580777,0.03070178554119817,0.1761740707093982,31.20273,-97.789638
29700,"Laredo, TX",249300,0.4702355021061617,0.10973711951637871,0.14860619858497487,0.02339396701419834,0.18849821699060984,27.760799,-99.340752
30980,"Longview, TX",273060,0.47180787730419577,0.10056805010731426,0.14862310521750263,0.028088273167594997,0.19452844881178388,32.364601,-94.819897
31180,"Lubbock, TX",353570,0.4617836405625972,0.11639515975156209,0.14203867526409247,0.030816801702274924,0.17253300384466774,33.470327,-101.648825
32580,"McAllen-Edinburg-Mission, TX",643640,0.4624782839059772,0.10875329622047511,0.13784506086464196,0.02795193736332053,0.18792798945753963,26.396384,-98.18099
33260,"Midland, TX",192850,0.4699309081346956,0.10982989830402674,0.15268642215954675,0.029381534259705824,0.17803305341141631,32.092359,-101.994539
36220,"Odessa, TX",167490,0.46151188274834026,0.10111320773063179,0.14656528665840796,0.023819575553175876,0.19001381280612467,31.865301,-102.542507
41660,"San Angelo, TX",121080,0.4630155039862969,0.10976825152207162,0.1417049963886693,0.02930908513576789,0.18223317093978808,31.36531,-100.659418
41700,"San Antonio-New Braunfels, TX",2502590,0.45904537161746334,0.1120984774975531,0.14350395954976428,0.03272834075826256,0.17071459381188342,29.43306,-98.606973
43300,"Sherman-Denison, TX",113920,0.4639518714386138,0.10957237776025186,0.1494080030832168,0.02753591194635842,0.17743557864878678,33.624524,-96.675693
45500,"Texarkana, TX-AR",153320,0.4600375344047237,0.09915202774307387,0.14621540316815504,0.02551732547420779,0.189152778019287,33.47837,-94.207169
46340,"Tyler, TX",261240,0.4679327476435284,0.11026549454585839,0.1483009396170954,0.029582825282885625,0.17978348819768897,32.375105,-95.268939
47020,"Victoria, TX",136050,0.4703262566836466,0.10385593418475525,0.14923563171258253,0.02813263799263676,0.189102052793672,28.731455,-97.196993
47380,"Waco, TX",282350,0.46289665592085216,0.10659137709139903,0.14676969605158888,0.029422937322790183,0.1801126454550741,31.427226,-97.093473
48660,"Wichita Falls, TX",165340,0.4615188569227592,0.10203550123090856,0.14861899573356366,0.027170134849530077,0.1836942251087569,33.776144,-98.501907
30860,"Logan, UT-ID",135470,0.4603700017154523,0.10439505879998753,0.14581843118035392,0.029502430032835227,0.18065408170227568,41.883617,-111.784324
36260,"Ogden-Clearfield, UT",592280,0.4531266384815225,0.10091398286740563,0.14310988180608505,0.030801902968437746,0.17830087083959406,41.300466,-113.126808
39340,"Provo-Orem, UT",512660,0.46363799635340913,0.10658295811390717,0.1468341609543619,0.033012263899058224,0.1772086133860819,39.872067,-112.359059
41100,"St. George, UT",144550,0.468066743106178,0.10774832743944451,0.14259110212295564,0.024007838010067235,0.1937194755337106,37.262531,-113.4878
41620,"Salt Lake City, UT",1875930,0.4612402021812458,0.11463617860689085,0.14714842983580398,0.03466964355629732,0.16478595018225367,40.572887,-112.953253
13980,"Blacksburg-Christiansburg-Radford, VA",181400,0.45708674610554784,0.1017474493711752,0.14755777417596183,0.03150646300176148,0.17627505955664935,37.121364,-80.531517
16820,"Charlottesville, VA",277440,0.45371970250844407,0.11379242916983205,0.14466699164173413,0.03469611042480597,0.16056417127207193,37.85459,-78.578282
25500,"Harrisonburg, VA",165500,0.46603569180982857,0.09679514402884956,0.15258729564705048,0.02228066852998871,0.19437258360393983,38.507585,-78.885321
31340,"Lynchburg, VA",294460,0.4577034043920011,0.09951334624125532,0.1469841746680611,0.02864109994094733,0.1825647835417373,37.364926,-79.216689
40060,"Richmond, VA",1785990,0.4568199910142797,0.109536975172631,0.14647080645747787,0.03385502484642401,0.16695718453774686,37.460057,-77.473869
40220,"Roanoke, VA",458590,0.4557024830065039,0.10159921931433044,0.14932067320054668,0.02773737516513009,0.1770452153264967,37.286226,-79.946935
47260,"Virginia Beach-Norfolk-Newport News, VA-NC",2249310,0.45092018410636586,0.10396417795210117,0.14410338340544093,0.03176833836765845,0.1710842843811653,36.856081,-76.373791
49020,"Winchester, VA-WV",152560,0.4626186566611115,0.10088497404900668,0.1514035367294362,0.024921047963518225,0.1854090979191504,39.272974,-78.471828
72400,"Burlington-South Burlington, VT",326360,0.4630628925486422,0.11569713158634413,0.1454328823540263,0.036902641359679106,0.16503023724859267,44.689117,-73.041171
13380,"Bellingham, WA",230080,0.46131650780501776,0.10493682996871886,0.14545563090289818,0.02770331289294638,0.18322073404045436,48.842653,-121.836432
14740,"Bremerton-Silverdale, WA",238660,0.4450542736804267,0.10292042320225066,0.13985616791780667,0.030154910503358758,0.1721227720570106,47.639687,-122.649636
28420,"Kennewick-Richland, WA",260580,0.4553952057460493,0.10072415834336645,0.14697910582224924,0.03248490971117207,0.17520703186926156,46.363964,-119.254046
31020,"Longview, WA",97720,0.4530831965055051,0.10012569198665927,0.14340583602642776,0.0250347132396894,0.18451695525272868,46.196785,-122.67846
34580,"Mount Vernon-Anacortes, WA",127750,0.4657700689667873,0.10501150327765896,0.1497356622097872,0.026561280457644425,0.18446162302169675,48.493292,-121.81577
36500,"Olympia-Tumwater, WA",275920,0.4444964623476727,0.11563234591722925,0.142471137012375,0.03487236867495082,0.1515206107431177,46.935822,-122.830152
42660,"Seattle-Tacoma-Bellevue, WA",4991180,0.4518723975155776,0.10824552602329343,0.14367337934142202,0.03617028411884268,0.1637832080320195,47.490599,-121.833996
44060,"Spokane-Spokane Valley, WA",616940,0.45359777452857164,0.10789669797048708,0.14386768177269296,0.029711361935681968,0.17212203284970964,48.189041,-117.573219
48300,"Wenatchee, WA",113260,0.46104364982271295,0.09834679965868535,0.14998755512991296,0.024343272260968576,0.1883660227731461,47.76611,-120.270197
49420,"Yakima, WA",231430,0.45701258991727134,0.09470876354302935,0.1491414663649348,0.025739678516946515,0.18742268149236072,46.456558,-120.740145
11540,"Appleton, WI",341270,0.45626101144780856,0.09869581161473964,0.14794394002118585,0.02868691620415808,0.18093434360772498,44.290603,-88.372326
20740,"Eau Claire, WI",224280,0.45794950990296024,0.10098005073367265,0.1483731343003697,0.02910720018881864,0.17948912468009928,44.938672,-91.284322
22540,"Fond du Lac, WI",125730,0.46459740107920566,0.08847758661761514,0.15775868528654335,0.021904240762901626,0.19645688841214554,43.754722,-88.493284
24580,"Green Bay, WI",487590,0.4566064157771163,0.09884883928172523,0.15063433770779017,0.029165591610175977,0.17795764717742496,44.474024,-87.99613
27500,"Janesville-Beloit, WI",187950,0.46495883020469014,0.09938145139140585,0.149920310030508,0.026748197643865657,0.18890887113891064,42.66988,-89.075284
29100,"La Crosse-Onalaska, WI-MN",201590,0.4541731617977365,0.1086702166511998,0.1451465330348369,0.02960887036264602,0.1707475417490537,43.783246,-91.318743
31540,"Madison, WI",995180,0.4499733701469718,0.11011283519796639,0.14631943924656823,0.034909262806051805,0.15863183289638536,43.084294,-89.59718
33340,"Milwaukee-Waukesha-West Allis, WI",2516630,0.45571088040269914,0.10408219019259204,0.14814001850004563,0.03288292073364226,0.17060575097641922,43.01766,-87.481554
36780,"Oshkosh-Neenah, WI",252620,0.4567613311079423,0.09977257645605045,0.14987664686911156,0.030461439683824865,0.1766506680989554,44.085707,-88.668149
39540,"Racine, WI",220750,0.4613786247755728,0.10040847464107595,0.15077952796694086,0.028878980296171898,0.18131164187138407,42.754122,-87.420877
43100,"Sheboygan, WI",168680,0.4669263465107767,0.08835502533189135,0.15584219609637584,0.02659561158921298,0.1961335134932965,43.741232,-87.731516
48140,"Wausau, WI",197250,0.46450937997988245,0.09921803196283524,0.1545592785207692,0.027598756440636925,0.18313331305564112,44.898036,-89.757823
16620,"Charleston, WV",426740,0.45947815939479153,0.11052734500854725,0.14713896833859808,0.028877845630841233,0.172934000416805,38.283213,-81.492557
26580,"Huntington-Ashland, WV-KY-OH",326040,0.46242724123402046,0.10637787600673529,0.1469868304457298,0.02810116816819974,0.1809613666133556,38.373691,-82.385193
34060,"Morgantown, WV",147830,0.4587956464158948,0.10365321082586576,0.14690506007710807,0.024271679340249985,0.183965696172671,39.525155,-79.801912
37620,"Parkersburg-Vienna, WV",200510,0.46332270888318,0.10428741322019063,0.1497819834412203,0.027218663520440292,0.1820346487013288,39.141531,-81.460402
48260,"Weirton-Steubenville, WV-OH",122490,0.4550725772940467,0.09634490201605586,0.14524097146954995,0.024477545369503542,0.1890091584389373,40.388914,-80.701966
48540,"Wheeling, WV-OH",182110,0.46422138701976357,0.11173645574842139,0.14531167405305073,0.027126219424380878,0.18004703779391057,39.975509,-80.847011
16220,"Casper, WY",109670,0.4543013810876421,0.09986875562213422,0.1453878743295506,0.02541830664948975,0.18362644448646753,42.977645,-106.768219
16940,"Cheyenne, WY",122540,0.4535948475212862,0.1034341461406707,0.14344336046870665,0.03031799312553357,0.17639934778637528,41.29283,-104.660395
