AREA,AREA_NAME,Employment,Automation Index,Race with the Machine,Race against the Machine,Race ahead of the Machine,Running a Different Race,Lat,Long
11260,"Anchorage, AK",477750,0.44873314795884905,0.10947537548936871,0.1606599685547555,0.03089858920046297,0.1476992147142619,62.212784,-149.678222
21820,"Fairbanks, AK",99500,0.4508528944496675,0.10738131995740618,0.16699612588548884,0.02778644150844302,0.1486890070983294,64.676044,-146.548159
11500,"Anniston-Oxford-Jacksonville, AL",135470,0.4597521697302423,0.09111682140618677,0.18113857179428694,0.025760872853456105,0.16173590367631246,33.771706,-85.822513
12220,"Auburn-Opelika, AL",135410,0.47806374822127906,0.10343547173319541,0.18378290671402545,0.02858253646852915,0.16226283330552904,32.604064,-85.353048
13820,"Birmingham-Hoover, AL",1540270,0.4593313237230333,0.10714289327798264,0.17181677883647586,0.031433930071560784,0.148937721537014,33.462372,-86.814338
19460,"Decatur, AL",154760,0.4687634792613873,0.09052926409953277,0.18719641508979434,0.026568338003262464,0.16446946206879767,34.489361,-87.097147
20020,"Dothan, AL",170930,0.4670338016409685,0.10321196152716756,0.17832959903960327,0.026808514272751955,0.15868372680144574,31.245528,-85.46919
22520,"Florence-Muscle Shoals, AL",144440,0.47043911319729337,0.10143125504160157,0.18126629282714407,0.02632808221601035,0.16141348311253736,34.799254,-87.719388
23460,"Gadsden, AL",99590,0.4689909107477469,0.1072600255355021,0.17366066887855686,0.026879797964322445,0.1611904183693655,34.047641,-86.034263
26620,"Huntsville, AL",608790,0.4445755754618286,0.10301161231273828,0.16551870543905065,0.040366852459869464,0.13567840525017014,34.783262,-86.734871
33660,"Mobile, AL",533440,0.466784872447067,0.101459048276712,0.1780061118155541,0.028496075237041986,0.1588236371177589,30.684572,-88.196568
33860,"Montgomery, AL",498250,0.4674119691797086,0.10650169022338485,0.17989271484856795,0.030793690652468945,0.15022387345528687,32.365631,-86.404585
46220,"Tuscaloosa, AL",265700,0.4626674829396894,0.09357696079185332,0.1841346379169396,0.02555216897880498,0.15940371525209152,33.160611,-87.715166
22220,"Fayetteville-Springdale-Rogers, AR-MO",589900,0.4539408932540665,0.09466372611792968,0.17740249101856181,0.027389586654795635,0.15448508946277936,36.197633,-94.119897
22900,"Fort Smith, AR-OK",351780,0.46069329247274715,0.0900537236552131,0.18311679457775148,0.026260322905800264,0.1612624513339823,35.195534,-94.562533
26300,"Hot Springs, AR",103350,0.46298388292548354,0.10833303562490806,0.17284673242869703,0.025007589780741375,0.15679652509113703,34.578852,-93.146932
27860,"Jonesboro, AR",137850,0.4620123692060128,0.09719971754790721,0.17817522557362028,0.02627671066039259,0.1603607154240927,35.69697,-90.650173
30780,"Little Rock-North Little Rock-Conway, AR",998290,0.4518710907160858,0.10675057161091765,0.16780802753745588,0.03140321983597392,0.14590927173173826,34.755773,-92.400589
38220,"Pine Bluff, AR",99240,0.45074059829592844,0.09136001549784538,0.17252232017616653,0.02464438709482237,0.16221387552709415,34.081208,-91.945729
22380,"Flagstaff, AZ",163180,0.46625067300107914,0.10811959889111264,0.16483675979517262,0.030543214546227944,0.16275109976856594,35.829692,-111.773728
29420,"Lake Havasu City-Kingman, AZ",144450,0.47333658247857735,0.10437181746275734,0.17806072435175765,0.02652112912515539,0.16438291153890694,35.717705,-113.749689
38060,"Phoenix-Mesa-Scottsdale, AZ",5597420,0.46376231865277673,0.11059556616491228,0.17088507661293925,0.031696968737069946,0.15058470713785524,33.185765,-112.067862
39140,"Prescott, AZ",178020,0.46941807050449735,0.10480771821564948,0.1731068901880012,0.02743045355648184,0.16407300854436482,34.631071,-112.577225
46060,"Tucson, AZ",1109100,0.45926133788649115,0.11143797299386757,0.16617498878662723,0.034537509349047646,0.14711086675694873,32.128043,-111.783657
49740,"Yuma, AZ",174760,0.46317074829321814,0.0891013693703103,0.17430437291360548,0.02308614294279851,0.17667886306650382,32.773942,-113.910905
12540,"Bakersfield, CA",793890,0.4539350047117049,0.08534592993512151,0.17002241400350457,0.026832811998023225,0.17173384877505557,35.346629,-118.729506
17020,"Chico, CA",204980,0.4556088627691513,0.11287719289601848,0.16303588626654633,0.027320771419981286,0.1523750121866052,39.665959,-121.601919
20940,"El Centro, CA",150450,0.4653580517260347,0.09044130545284856,0.1681362528680348,0.025162720305858415,0.18161777309929295,33.040814,-115.3554
23420,"Fresno, CA",982530,0.445306823611194,0.09449447395928634,0.1678543874003211,0.02736341024223963,0.15559455200934694,36.761006,-119.655019
25260,"Hanford-Corcoran, CA",100820,0.450517948417006,0.09176602107831577,0.16944242258218406,0.02706131795581707,0.16224818680068911,36.072478,-119.81553
31080,"Los Angeles-Long Beach-Anaheim, CA",16962300,0.4480445771748654,0.11024723530007938,0.1645255660659303,0.03385156537590183,0.13942021043295388,34.108705,-118.182745
31460,"Madera, CA",108340,0.46158093830680924,0.0823926737606655,0.181548946056171,0.021990216254359665,0.1756491022356131,37.209821,-119.749802
32900,"Merced, CA",172790,0.4646485103170573,0.09528841555446768,0.17335935698586435,0.02777580348413234,0.16822493429259294,37.194806,-120.722802
33700,"Modesto, CA",482710,0.4567521487982855,0.09586638858287623,0.1725910273606761,0.028001487450373508,0.16029324540435969,37.562316,-121.002831
34900,"Napa, CA",184070,0.46483757449186547,0.100329578469653,0.17219769110927596,0.028197114425382044,0.1641131904875545,38.5071,-122.325904
37100,"Oxnard-Thousand Oaks-Ventura, CA",890330,0.45644909259578437,0.10692106732883573,0.16754251770130468,0.0341866604734651,0.14779884709217886,34.358741,-119.133143
39820,"Redding, CA",187360,0.4563930870240091,0.10517501211044572,0.16533514356889492,0.028171887347522427,0.15771104399714603,40.760514,-122.043556
40140,"Riverside-San Bernardino-Ontario, CA",3799810,0.45423466117080646,0.09715698770684131,0.1696527009282759,0.028499841768986428,0.15892513076670275,34.537534,-116.130921
40900,"Sacramento--Roseville--Arden-Arcade, CA",2586250,0.4459697373415191,0.11226447985188028,0.16013622176723535,0.035114165877359216,0.13845486984504432,38.789678,-121.00575
41500,"Salinas, CA",459530,0.4535746283229747,0.08638945577186624,0.17024904531101212,0.024483977639033996,0.17245214960106237,36.240107,-121.315572
41740,"San Diego-Carlsbad, CA",3958090,0.4483977197364761,0.10987075767208662,0.16096784687607324,0.03541838961069345,0.14214072557762275,33.023604,-116.776117
41860,"San Francisco-Oakland-Hayward, CA",5992800,0.4500938194242611,0.11342006192346868,0.1606567957036015,0.03845697492174585,0.13755998687544504,37.773718,-122.274432
41940,"San Jose-Sunnyvale-Santa Clara, CA",2744200,0.4458456316211632,0.11120667914942345,0.157270272946445,0.04741750740739052,0.12995117211790427,36.908472,-121.371372
42020,"San Luis Obispo-Paso Robles-Arroyo Grande, CA",294040,0.4582125986784907,0.10712648358624369,0.164050964946082,0.028415037063500816,0.15862011308266416,35.385224,-120.447544
42100,"Santa Cruz-Watsonville, CA",258190,0.4536368130195294,0.11270738096830168,0.1584283866380079,0.0330392109227886,0.14946183449043124,37.012488,-122.007205
42200,"Santa Maria-Santa Barbara, CA",512700,0.4573840669784572,0.10760017803438456,0.16602867873537885,0.031890499880912165,0.15186471032778165,34.537057,-120.039973
42220,"Santa Rosa, CA",540580,0.45720664689458995,0.10532495123246019,0.1664620158358126,0.031609330870357166,0.15381034895596002,38.525182,-122.92611
44700,"Stockton-Lodi, CA",632650,0.4532772281238179,0.09278609844513575,0.17259802441251906,0.0270354917858752,0.1608576134802879,37.934982,-121.272244
46700,"Vallejo-Fairfield, CA",360650,0.45651820828005485,0.10494581010876665,0.16416403080787423,0.03050076497048926,0.1569076023929247,38.267226,-121.939594
47300,"Visalia-Porterville, CA",389890,0.4655634638228295,0.08565624562861596,0.17883654596283327,0.024160665460294425,0.17691000677108581,36.228834,-118.781055
49700,"Yuba City, CA",110270,0.4591565708022848,0.10431458470113669,0.1627694510025977,0.029771562609451234,0.16230097248909914,39.160969,-121.511833
14500,"Boulder, CO",477790,0.45189220636569205,0.12009055985669816,0.15729311905926277,0.04656684871816509,0.12794167873156603,40.09497,-105.397691
17820,"Colorado Springs, CO",747120,0.44964257144692843,0.11517562362761782,0.15893357909992661,0.0369472676497431,0.13858610106964084,38.845507,-104.638728
19740,"Denver-Aurora-Lakewood, CO",3730450,0.44989552268543526,0.11306829137384095,0.16045797271442794,0.03695159463347707,0.13941766396368932,39.434749,-104.901209
22660,"Fort Collins, CO",374300,0.4548543124894188,0.11011560613530448,0.16324250913486885,0.03146438455942588,0.15003181265981963,40.658093,-105.486764
24300,"Grand Junction, CO",172590,0.45661425897752767,0.10769040187241047,0.1681913729114272,0.024482304794111863,0.15625017939957814,39.019421,-108.461893
24540,"Greeley, CO",225020,0.4611087776437605,0.09908784804092369,0.17348720932403333,0.028688371201236032,0.15984534907756748,40.555961,-104.383666
39380,"Pueblo, CO",159270,0.4502932423215729,0.1059264315310708,0.1666813900372842,0.0244100532844091,0.15327536746880882,38.170658,-104.489892
71950,"Bridgeport-Stamford-Norwalk, CT",1288800,0.4602203695412233,0.1201924516632653,0.16185349270816266,0.04067005870432941,0.137504366465466,41.227413,-73.367061
73450,"Hartford-West Hartford-East Hartford, CT",1711720,0.4588664494574769,0.11640583525808279,0.16540912960786597,0.03928577644039634,0.13776570815113182,41.71865,-72.573919
75700,"New Haven, CT",831270,0.45653228117031075,0.11065047265970694,0.1657776092621396,0.03505764529681156,0.14504655395165264,41.349717,-72.900204
76450,"Norwich-New London-Westerly, CT-RI",385710,0.45876424442160024,0.10917539130902242,0.1629742842161555,0.03227452524408388,0.15434004365233842,41.472652,-72.108634
47900,"Washington-Arlington-Alexandria, DC-VA-MD-WV",8497930,0.44767767788690405,0.11816241131860078,0.15634271566514452,0.04339230221160112,0.12978024869155763,38.816928,-77.448228
20100,"Dover, DE",165650,0.4665330584095958,0.11288188274540714,0.17169587588080254,0.029242127488412078,0.152713172294974,39.097088,-75.502982
15980,"Cape Coral-Fort Myers, FL",626020,0.44972349759692776,0.10435894316152614,0.1670145384625905,0.02695030102903409,0.15139971494377705,26.559035,-81.891994
18880,"Crestview-Fort Walton Beach-Destin, FL",217620,0.4454815634489807,0.10891144193999135,0.1640090128979243,0.029870411087129203,0.14269069752393587,30.641097,-86.367692
19660,"Deltona-Daytona Beach-Ormond Beach, FL",469400,0.4490741174725159,0.10989982547960132,0.1693255367814634,0.02552114088648356,0.14432761432496763,29.1789,-81.189023
23540,"Gainesville, FL",333850,0.4377581204784323,0.11174386419223388,0.16400269630310288,0.029886637992959608,0.13212492199013598,29.677957,-82.479869
27260,"Jacksonville, FL",1795010,0.44961723817743093,0.11014950159846187,0.16794975656426153,0.031369133576086415,0.14014884643862113,30.234146,-81.756078
29460,"Lakeland-Winter Haven, FL",591510,0.44659893433312225,0.09834526553908104,0.17297690026397278,0.024823018803533388,0.15045374972653508,27.953581,-81.69347
33100,"Miami-Fort Lauderdale-West Palm Beach, FL",7012760,0.45232436460054015,0.1119466087504407,0.1663570241511123,0.029874950020072434,0.14414578167891468,26.101828,-80.478755
34940,"Naples-Immokalee-Marco Island, FL",357530,0.4566230952632243,0.1047329729932536,0.16751212195472243,0.024998393823137847,0.15937960649211044,26.118786,-81.400955
35840,"North Port-Sarasota-Bradenton, FL",766410,0.449439757063607,0.10770642997452702,0.1681763370034655,0.027860123016294,0.1456968670693205,27.364247,-82.319344
36100,"Ocala, FL",274810,0.4560257558247771,0.10339962742585361,0.17578866371643984,0.024059252328181183,0.15277821235430247,29.202805,-82.0431
36740,"Orlando-Kissimmee-Sanford, FL",3110380,0.4446465655279229,0.10691021305988344,0.16274587266245238,0.030136455506882015,0.14485402429870506,28.434396,-81.356084
37340,"Palm Bay-Melbourne-Titusville, FL",590250,0.44511342636941087,0.10551744864907521,0.16673290601116392,0.03343793983367049,0.13942513187550126,28.298678,-80.700534
37460,"Panama City, FL",198460,0.45495242161364063,0.10377388915485485,0.17089151217553228,0.02593025609718415,0.15435676418606936,30.101095,-85.474971
37860,"Pensacola-Ferry Pass-Brent, FL",451210,0.4519128019114684,0.11073708314850005,0.1709053935329673,0.027691086327829344,0.14257923890217167,30.655401,-87.161828
38940,"Port St. Lucie, FL",374700,0.4504458517811961,0.1059890184206877,0.16913292747812472,0.025363941884262248,0.14995996399812137,27.232699,-80.42677
39460,"Punta Gorda, FL",114200,0.4617284764075793,0.10950840296291264,0.174114102056418,0.02308383521803445,0.1550221361702142,26.868974,-81.941278
42680,"Sebastian-Vero Beach, FL",134570,0.4580821126248821,0.10457278919695279,0.17121723015443482,0.02619152124367207,0.15610057202982242,27.700528,-80.574789
45220,"Tallahassee, FL",477100,0.4474156793013775,0.11955866169782689,0.16013001445488562,0.03633168173969423,0.1313953214089707,30.386425,-84.28041
45300,"Tampa-St. Petersburg-Clearwater, FL",3593720,0.4447149085713863,0.1102743437828515,0.165392828920947,0.03183552314152187,0.1372122127260659,28.125907,-82.465286
10500,"Albany, GA",175250,0.4687406282723491,0.1072964890024347,0.17297814323732452,0.028181034850950477,0.16028496118163935,31.589303,-84.174913
12020,"Athens-Clarke County, GA",229150,0.4640396376094378,0.10880911001863477,0.1707123131531026,0.029938673883716224,0.1545795405539842,33.943984,-83.213897
12060,"Atlanta-Sandy Springs-Roswell, GA",7126220,0.4610195950696769,0.1140898008305166,0.16630841206348115,0.035841526042535675,0.14477985613314348,33.693728,-84.399911
12260,"Augusta-Richmond County, GA-SC",611890,0.4616622767557875,0.10351349883016871,0.17345527443083206,0.03085172702039731,0.15384177647438946,33.460371,-81.982833
15260,"Brunswick, GA",121760,0.4710932414612432,0.11278787298895807,0.16819929760321597,0.027735656129521516,0.16237041473954766,31.301739,-81.588909
17980,"Columbus, GA-AL",330750,0.4615096684015431,0.1107179438495522,0.17069781726585959,0.031685718801106974,0.14840818848502435,32.436836,-84.900879
19140,"Dalton, GA",216650,0.44954080162731824,0.08395138743041757,0.1873130499889055,0.025598811597772664,0.15267755261022253,34.796956,-84.856279
23580,"Gainesville, GA",209800,0.4762958953277261,0.09773780443724861,0.19198153509266191,0.028260367534304345,0.15831618826351126,34.317569,-83.8185
25980,"Hinesville, GA",39660,0.4654916746734167,0.10806312641643369,0.1641238271013615,0.02840940595148661,0.1648953152041349,31.778788,-81.57648
31420,"Macon, GA",288790,0.4631410165203543,0.11170297041499187,0.1714553364890291,0.028962209227232347,0.15102050038910092,32.856216,-83.714305
40660,"Rome, GA",110140,0.46768114908584923,0.10761108828092843,0.1755262926604031,0.02778049253569714,0.15676327560882058,34.263692,-85.213685
42340,"Savannah, GA",447930,0.4683556029380849,0.10710128608699182,0.17093749790251783,0.028858934143347233,0.16145788480522805,32.109153,-81.273107
46660,"Valdosta, GA",157850,0.47239444705563455,0.10487711356909775,0.17640714477681987,0.02598116894584231,0.16512901976387462,30.829645,-83.24064
47580,"Warner Robins, GA",151760,0.4374817608494307,0.09528069923019185,0.15947881038673647,0.03150565684417365,0.15121659438832868,32.401594,-83.635095
46520,"Urban Honolulu, HI",1273020,0.4480117696563525,0.1098959453995964,0.15741464270885347,0.032323619489455474,0.14837756205844707,21.580023,-158.123406
11180,"Ames, IA",115000,0.44933629674462483,0.10837034223808283,0.16833330859853818,0.027998772696248828,0.144633873211755,42.037538,-93.466093
16300,"Cedar Rapids, IA",397630,0.4578564375045652,0.1070040025563287,0.17112722663188587,0.03455177172081038,0.14517343659554022,42.086329,-91.631144
19340,"Davenport-Moline-Rock Island, IA-IL",544440,0.4487388895838341,0.09957304369380986,0.17236086964967184,0.029327465141315255,0.14747751109903715,41.39168,-90.460076
19780,"Des Moines-West Des Moines, IA",969520,0.4540182910595911,0.11633106137098542,0.16582317389228335,0.03503272186628724,0.13683133393003505,41.54486,-93.943487
20220,"Dubuque, IA",146610,0.4624015294169225,0.10393362625120421,0.17798043609259148,0.027036331702739388,0.1534511353703874,42.463481,-90.878771
26980,"Iowa City, IA",231000,0.4454488817800797,0.11383390927566621,0.16527465810366881,0.028903266282995332,0.13743704811774934,41.517806,-91.64793
43580,"Sioux City, IA-NE-SD",209450,0.45757923768282627,0.10446998806019342,0.17334876339120975,0.02835568008334588,0.15140480614807725,42.580634,-96.376047
47940,"Waterloo-Cedar Falls, IA",252570,0.4591697758346538,0.09938437264101858,0.17795922010686557,0.027129849025295374,0.15469633406147423,42.536796,-92.471608
14260,"Boise City, ID",827440,0.4564555023583371,0.11283327332089142,0.16482953809861725,0.033712022806001,0.14508066813282747,43.006648,-116.141909
17660,"Coeur d'Alene, ID",162640,0.4677652062466229,0.11300719985968696,0.17149077541718058,0.028533260414255218,0.15473397055550012,47.675966,-116.695922
26820,"Idaho Falls, ID",144370,0.45586441232162433,0.1064229051645025,0.16359255271948311,0.029576038353523848,0.1562729160841149,43.620423,-112.420919
30300,"Lewiston, ID-WA",68660,0.44592030102897284,0.10822315935775018,0.16166692367164126,0.027338089140221435,0.14869212885935992,46.251696,-116.925017
38540,"Pocatello, ID",95730,0.4565893925345215,0.1118805621544011,0.1612452791419678,0.028754839097491047,0.15470871214066156,42.692921,-112.228982
14010,"Bloomington, IL",233780,0.4417315683099233,0.10609177916971493,0.16295293656867146,0.031210690184984635,0.14147616238655225,40.405593,-88.861307
16580,"Champaign-Urbana, IL",279250,0.44679461257048947,0.1056400417195823,0.1667229095828708,0.028828363899417425,0.14560329736861885,40.234489,-88.298623
16980,"Chicago-Naperville-Elgin, IL-IN-WI",13341630,0.4427603500162036,0.1029001684234967,0.16578338915171809,0.03286671978620767,0.1412100726547811,41.823521,-87.828297
19180,"Danville, IL",77640,0.44298428376719656,0.0982513296014179,0.17013156190258216,0.023330044779234567,0.15127134748396193,40.186754,-87.726778
19500,"Decatur, IL",148940,0.43098055129698426,0.0990801741671911,0.16292092178642242,0.027254199691409624,0.1417252556519611,39.860237,-88.961529
28100,"Kankakee, IL",111190,0.43071055984390244,0.09587152349131636,0.16289643034080858,0.025615916516841673,0.14632668949493582,41.13951,-87.861117
37900,"Peoria, IL",521990,0.4431740369817765,0.09928655677827604,0.16792605026131113,0.028327194263259706,0.1476342356789296,40.788255,-89.514745
40420,"Rockford, IL",448950,0.45243742749316984,0.08917650193139688,0.18312961416048396,0.027100981840771594,0.1530303295605174,42.331183,-89.042914
44100,"Springfield, IL",305980,0.43834171286454093,0.11906508475576716,0.15961611071119605,0.03263606851996967,0.12702444887760797,39.828565,-89.696205
14020,"Bloomington, IN",207000,0.4542872183031662,0.10139292740510313,0.17473765900296945,0.026407178613495872,0.15174945328159775,39.241736,-86.671754
18020,"Columbus, IN",121860,0.46852537362207014,0.09040488925837199,0.19553807743917853,0.02800056562264395,0.1545818413018756,39.205843,-85.897999
21140,"Elkhart-Goshen, IN",365000,0.47204353584734093,0.075245056068518,0.20970667759064565,0.023627380043045404,0.1634644221451319,41.600693,-85.863986
21780,"Evansville, IN-KY",505830,0.4627236546699478,0.09376028092690822,0.18267874805124304,0.028686416189993326,0.15759820950180323,38.02007,-87.586166
23060,"Fort Wayne, IN",626670,0.46769475250153336,0.10257536582658092,0.17967182146131735,0.030668355225738776,0.1547792099878963,41.006999,-85.216424
26900,"Indianapolis-Carmel-Anderson, IN",2679030,0.45685581615311466,0.10540055462135521,0.1709519727776654,0.031621038500689876,0.14888225025340415,39.74867,-86.212382
29020,"Kokomo, IN",113360,0.4590272071318036,0.10334713320366694,0.17288763150076972,0.025113610572508265,0.1576788318548587,40.483537,-86.114118
29200,"Lafayette-West Lafayette, IN",234260,0.472642066691777,0.1012644439778739,0.18601499338431537,0.02729448327268949,0.15806814605689826,40.514717,-86.930475
33140,"Michigan City-La Porte, IN",123100,0.4680827123235567,0.09703158613113491,0.18371550587310023,0.02476530943163776,0.16257031088768378,41.549013,-86.744739
34620,"Muncie, IN",131670,0.46154094685533353,0.1091273648351325,0.1713598608179876,0.027436500229313807,0.15361722097289957,40.227543,-85.399262
43780,"South Bend-Mishawaka, IN-MI",394290,0.4599865117198408,0.10641998557127452,0.17424884901027582,0.030284002256402244,0.14903367488188818,41.774981,-86.123014
45460,"Terre Haute, IN",198500,0.4595641774645215,0.09737723154837226,0.17881550752623973,0.02545979761614411,0.15791164077376538,39.392389,-87.347096
29940,"Lawrence, KS",131750,0.46738799237117323,0.11701551407852408,0.1642756645128447,0.030736910413366257,0.15535990336643826,38.896417,-95.290947
45820,"Topeka, KS",318660,0.4539813325203555,0.11133991304567713,0.16368220941881345,0.03443287811603912,0.14452633193982578,39.041389,-95.802639
48620,"Wichita, KS",898840,0.46502262119824966,0.1022206199600984,0.17712280680098252,0.033580152995892135,0.15209904144127664,37.629831,-97.398832
14540,"Bowling Green, KY",165760,0.4663749779113021,0.10255209059871323,0.17899176074074938,0.027591043708183063,0.1572400828636565,37.046821,-86.397068
21060,"Elizabethtown-Fort Knox, KY",127080,0.4469899426637439,0.09447699615751778,0.17210861094196633,0.026090828635642063,0.1543135069286178,37.73298,-85.972171
30460,"Lexington-Fayette, KY",734170,0.45743568375830856,0.10247975943899787,0.17227902132049355,0.03120370415001304,0.15147319884880403,38.102876,-84.438545
31140,"Louisville/Jefferson County, KY-IN",1832700,0.4575282871139975,0.10078164308124102,0.17539722590875678,0.03044080468827757,0.15090861343572218,38.33524,-85.668941
36980,"Owensboro, KY",138370,0.4600116557231731,0.09709891088129866,0.17860543540797627,0.026516617614332633,0.15779069181956557,37.693723,-87.077058
10780,"Alexandria, LA",176160,0.45310138837066316,0.10281426568922228,0.16431909211440476,0.027324545604052394,0.15864348496298372,31.325348,-92.546803
12940,"Baton Rouge, LA",1090610,0.45096551419668984,0.10022349435559902,0.16774533214186169,0.031002539627818435,0.1519941480714107,30.57089,-91.134533
26380,"Houma-Thibodaux, LA",273940,0.45641988318442317,0.087166512526514,0.1798078031784666,0.024246498579734613,0.16519906889970798,29.33413,-90.843674
29180,"Lafayette, LA",426770,0.45153017015023755,0.1005311041769518,0.17324653408536847,0.02684450148456752,0.15090803040334977,29.957773,-92.04935
29340,"Lake Charles, LA",255120,0.45767751782080424,0.09566553757871517,0.1761853478460761,0.025444112611292674,0.16038251978472032,29.978755,-93.253243
33740,"Monroe, LA",223710,0.45334116458549256,0.10431716458059959,0.16886239240362294,0.027477795603277805,0.15268381199799225,32.690477,-92.262793
35380,"New Orleans-Metairie, LA",1523150,0.4468625908222803,0.10366174784731938,0.1648476090419911,0.029746296266992687,0.14860693766597713,29.805532,-89.701382
43340,"Shreveport-Bossier City, LA",513990,0.4555832775737879,0.10294943746835467,0.16957105720223753,0.028146247941383377,0.15491653496181237,32.490638,-93.671191
70900,"Barnstable Town, MA",284820,0.46173348003645187,0.11130309646323379,0.1603950709754649,0.03078794767860453,0.15924736491914868,41.799014,-70.21188
71650,"Boston-Cambridge-Nashua, MA-NH",7288920,0.4575829792955042,0.11804511061068895,0.16381153175223,0.04103824050060262,0.13468809643198262,42.517606,-71.021993
76600,"Pittsfield, MA",91900,0.4609828685438428,0.11562119481261682,0.162131702061033,0.03324456540148318,0.14998540626870982,42.371493,-73.217928
78100,"Springfield, MA-CT",882850,0.4603313716885226,0.10729835891395215,0.16839338556192002,0.03334793060715498,0.15129169660549546,42.2478,-72.632108
79600,"Worcester, MA-CT",727250,0.46397959500281927,0.11463860418963764,0.16831919367435913,0.03550321385281725,0.14551858328600525,42.217311,-71.925535
12580,"Baltimore-Columbia-Towson, MD",3861590,0.45203466488290034,0.11258390612436851,0.16188135658245298,0.03613069923164201,0.1414387029444368,39.304361,-76.549501
19060,"Cumberland, MD-WV",102100,0.46581787961771365,0.10532306304904555,0.17578737316732834,0.02537371518608213,0.15933372821525765,39.532185,-78.807082
25180,"Hagerstown-Martinsburg, MD-WV",288630,0.4604940601188517,0.10285992293426302,0.17585407160994027,0.0278102671052452,0.15396979846940317,39.542152,-77.899767
41540,"Salisbury, MD-DE",151350,0.4617524143570124,0.11418677055801021,0.16486278277952293,0.030716003859793208,0.15198685715968605,38.399521,-75.478262
70750,"Bangor, ME",180980,0.461389375618441,0.11210560579484964,0.1656250056836793,0.03056175842794781,0.15309700571196422,45.409284,-68.666616
74650,"Lewiston-Auburn, ME",139950,0.4688672491896687,0.11478374445837208,0.17262199847203538,0.028695344089782197,0.15276616216947908,44.167681,-70.207435
76750,"Portland-South Portland, ME",589370,0.4582474729078195,0.11293907791366313,0.16488400382530374,0.033756180744721184,0.14666821042413142,43.651417,-70.418375
11460,"Ann Arbor, MI",522380,0.4493224305355503,0.11557851492935092,0.16302532292651295,0.0362473740461883,0.13447121863349823,42.252217,-83.843423
12980,"Battle Creek, MI",150890,0.44642661165649383,0.10465519892973495,0.1671670432708689,0.0309699383621153,0.14363443109377466,42.24299,-85.012385
13020,"Bay City, MI",98750,0.45077430536348845,0.10385485785470264,0.1668126808648181,0.025057525385338612,0.15504924125862907,43.699711,-83.978701
19820,"Detroit-Warren-Dearborn, MI",5741050,0.45053977407333134,0.10560666780603324,0.16837343489414325,0.03301304018847362,0.14354663118468128,42.721848,-83.200846
22420,"Flint, MI",409330,0.4474811170141787,0.10810012664051706,0.16264396518932484,0.027953279943431386,0.1487837452409054,43.021077,-83.706372
24340,"Grand Rapids-Wyoming, MI",1135320,0.4461469472187849,0.09817310031900184,0.17461955611601748,0.028651926672356512,0.14470236411140905,42.978632,-85.811208
27100,"Jackson, MI",153980,0.45033800013972514,0.10393102242157479,0.17025145206428918,0.029695737278540357,0.14645978837532084,42.248474,-84.420868
28020,"Kalamazoo-Portage, MI",404620,0.44321566140393676,0.10164986879339391,0.1672426242116578,0.028298577192863376,0.14602459120602165,42.268871,-86.037373
29620,"Lansing-East Lansing, MI",600700,0.45392865446077946,0.1140543844827642,0.16680462342257807,0.03183963879153098,0.14123000776390623,42.713659,-84.605372
33780,"Monroe, MI",112700,0.4545798968667447,0.09566365539281371,0.17221474046867744,0.025167295458850235,0.16153420554640335,41.916097,-83.487106
34740,"Muskegon, MI",176730,0.4533304734929475,0.0988847373171343,0.17691163400751725,0.026939336958737764,0.1505947652095582,43.289258,-86.751892
35660,"Niles-Benton Harbor, MI",176980,0.4513039706611889,0.10459249166631912,0.1712460993309806,0.030554254381287,0.14491112528260217,41.791382,-86.742543
40980,"Saginaw, MI",229720,0.4558941385231797,0.10785652978376278,0.16933045516512343,0.029340728125860464,0.149366425448433,43.328267,-84.05541
20260,"Duluth, MN-WI",368810,0.44589693296621347,0.10054520934059759,0.1623751978169143,0.028989428575547017,0.1539870972331545,47.329703,-92.37627
33460,"Minneapolis-St. Paul-Bloomington, MN-WI",5320230,0.44138975146762216,0.10876072361129942,0.16091021654432638,0.035834549579524366,0.135884261732472,45.060982,-93.351369
40340,"Rochester, MN",290010,0.4483964561383846,0.10243519710538493,0.16665783552601737,0.030400888911154472,0.14890253459582786,43.949636,-92.33607
41060,"St. Cloud, MN",291000,0.44593376951756847,0.09840837723706827,0.16980350762533236,0.027703207456382432,0.15001867719878534,45.593031,-94.488363
17860,"Columbia, MO",240830,0.4634826191155643,0.11754210344911593,0.16977442563735626,0.030493219972999544,0.14567287005609256,38.989861,-92.310202
27620,"Jefferson City, MO",203810,0.45583285779676164,0.11297964408644315,0.16918097221017595,0.03297705130317678,0.14069519019696575,38.637121,-92.089227
27900,"Joplin, MO",229270,0.4611015482078729,0.09162553349305046,0.18274053801119694,0.02386624470168308,0.16286923200194242,37.055546,-94.339736
28140,"Kansas City, MO-KS",3034990,0.45741789755488155,0.11001121521088462,0.16978842422556453,0.034423427824956276,0.14319483029347613,38.931849,-94.443824
41140,"St. Joseph, MO-KS",145600,0.4658808700932569,0.10087304169909768,0.18044535492836117,0.025397938127669356,0.15916453533812874,39.834843,-94.783754
41180,"St. Louis, MO-IL",4009940,0.4540232586357282,0.1080497712308962,0.16880132415449106,0.03246582462150725,0.14470633862883364,38.740372,-90.345956
44180,"Springfield, MO",572650,0.4609960675367382,0.10924204186815717,0.17445483308308357,0.02875067111139056,0.1485485214741069,37.36087,-93.180262
25060,"Gulfport-Biloxi-Pascagoula, MS",310970,0.4676567114047669,0.10286897166555833,0.17427190659043207,0.02989563748679837,0.1606201956619781,30.430245,-88.979736
25620,"Hattiesburg, MS",163870,0.46778487389265494,0.1090311755243137,0.1728672078102609,0.028113529369365883,0.15777296118871442,31.188441,-89.232741
27140,"Jackson, MS",748220,0.46975010682258256,0.1118854386203142,0.17359749286845721,0.033364168806080625,0.15090300652773053,32.316001,-90.22084
13740,"Billings, MT",232830,0.46243466105600695,0.10910957795772556,0.1692155331392756,0.02938452688284139,0.15472502307616445,45.775175,-108.726537
24500,"Great Falls, MT",99310,0.4621164211436354,0.10701032142580462,0.168934023023089,0.028820499280790005,0.15735157741395175,47.316575,-111.350262
33540,"Missoula, MT",158020,0.47090535959687585,0.11460080300432501,0.17277721653429362,0.029375171779538245,0.15415216827871894,47.027263,-113.892691
11700,"Asheville, NC",516510,0.4654744048765723,0.10397190637666043,0.17194312366097456,0.02938518501122188,0.16017418982771545,35.595669,-82.681615
15500,"Burlington, NC",170320,0.46182468782629693,0.09668073503426877,0.18010029936080482,0.025564411518494472,0.15947924191272883,36.043954,-79.400573
16740,"Charlotte-Concord-Gastonia, NC-SC",2619190,0.461194160798851,0.10903726995964966,0.16899909701163363,0.03443365749871645,0.14872413632885123,35.187295,-80.867491
20500,"Durham-Chapel Hill, NC",817600,0.44742014839971944,0.11351598098210684,0.1617842385373894,0.04216338836769633,0.12995654051252686,35.995536,-79.09699
22180,"Fayetteville, NC",364540,0.4506846532110347,0.1027409683283857,0.1624357027296181,0.027457039401970813,0.15805094275106008,35.037956,-78.982209
24140,"Goldsboro, NC",112040,0.4707680746723599,0.10192537215239585,0.17359378088087277,0.02374095979690093,0.17150796184219033,35.35419,-78.00867
24660,"Greensboro-High Point, NC",1094510,0.46333167909231066,0.10186157146784773,0.17762106795625665,0.030056014922554206,0.153793024745652,36.025204,-79.792633
24780,"Greenville, NC",210250,0.45900559899863,0.10911878865962686,0.16257726431799968,0.0283295710564328,0.15897997496457067,35.59249,-77.372739
25860,"Hickory-Lenoir-Morganton, NC",466550,0.46874382463055597,0.08654925929240519,0.18943465822572012,0.025295770811907342,0.16746413630052337,35.814611,-81.457066
27340,"Jacksonville, NC",119870,0.46896762989435603,0.11288689833859535,0.16748317583931402,0.024434532468853097,0.16416302324759358,34.763109,-77.499469
39580,"Raleigh, NC",1495400,0.46121879006635946,0.11341157997154003,0.1631492468449323,0.03813458953286693,0.14652337371702026,35.756746,-78.460441
40580,"Rocky Mount, NC",170540,0.4742181032383339,0.09894600874946312,0.18279818688500218,0.02708953908496138,0.16538436851890723,35.941045,-77.798549
48900,"Wilmington, NC",422940,0.4631382846664347,0.10869968137664572,0.1640951655422103,0.02952178110926095,0.16082165663831774,34.426033,-77.889634
49180,"Winston-Salem, NC",631480,0.45862559379486095,0.10463876742158634,0.1710129310814463,0.030827636846975093,0.15214625844485324,36.078852,-80.345064
13900,"Bismarck, ND",167470,0.46242190773037994,0.11587525416859273,0.16674744461078414,0.03195966276232023,0.1478395461886829,46.726594,-100.996096
22020,"Fargo, ND-MN",342970,0.4621165046063762,0.10947174835001472,0.17203006425151515,0.0306058994779965,0.15000879252684984,46.914859,-96.960183
24220,"Grand Forks, ND-MN",137940,0.4569448992823736,0.10612818466983322,0.1653308785083739,0.027197565757259345,0.15828827034690712,47.835929,-96.842681
30700,"Lincoln, NE",482690,0.4609639639167743,0.11148035928694036,0.17440372545888022,0.03200445982729057,0.14307541934366313,40.817458,-96.868743
36540,"Omaha-Council Bluffs, NE-IA",1364320,0.45338893611835307,0.10717296069833039,0.16917695303619518,0.03265705727003592,0.14438196511379162,41.290459,-95.99997
74950,"Manchester, NH",300930,0.443284968063127,0.11319409668022207,0.15945510542118216,0.03442354825785865,0.13621221770386413,42.911532,-71.723055
12100,"Atlantic City-Hammonton, NJ",428030,0.4484523104857657,0.09962310131945018,0.16572555534610917,0.026345277152503864,0.15675837666770256,39.469355,-74.633759
36140,"Ocean City, NJ",114350,0.45181649708563804,0.10687099260756625,0.16337661794100994,0.025174279686602165,0.1563946068504597,39.086141,-74.84771
45940,"Trenton, NJ",650170,0.4405585004918886,0.11988251148484316,0.15767306034119652,0.040126540646143516,0.12287638801970542,40.282503,-74.703724
47220,"Vineland-Bridgeton, NJ",169050,0.4489532714612526,0.09532900103063979,0.17356595549061968,0.026266460170667576,0.1537918547693255,39.328434,-75.121628
10740,"Albuquerque, NM",1165310,0.4571217933119234,0.11051335978730373,0.16338117019268172,0.032987254321950536,0.1502400090099874,35.123496,-106.458392
22140,"Farmington, NM",147340,0.4616008574058821,0.09465094950796626,0.1698920373400295,0.025728047693440653,0.17132982286444567,36.511624,-108.324578
29740,"Las Cruces, NM",184420,0.45865257908443513,0.10817508890893147,0.160680129415105,0.031578291334824996,0.15821906942557368,32.349919,-106.834968
42140,"Santa Fe, NM",181480,0.45682101125028635,0.12139213560182771,0.1538492070735041,0.0338355842897563,0.1477440842851982,35.51453,-105.963972
16180,"Carson City, NV",79750,0.4626316977044137,0.1156757024575867,0.18224392427094108,0.027877920979718647,0.1368341499961673,39.15306,-119.747379
29820,"Las Vegas-Henderson-Paradise, NV",2762050,0.45479531306855286,0.09746549786192862,0.1696293319426483,0.02498639911189582,0.16271408415208016,36.214257,-115.013812
39900,"Reno, NV",617310,0.45354619130818113,0.09978809669341288,0.17227418914960563,0.026211724582934654,0.155272180882228,40.500795,-119.731161
10580,"Albany-Schenectady-Troy, NY",1288370,0.4503821963624246,0.11670587561598242,0.16192539647528237,0.036976607489512966,0.13477431678164684,42.78792,-73.942348
13780,"Binghamton, NY",320570,0.46412336397095544,0.11094253215009436,0.17232221404853387,0.0324686864402752,0.14838993133205203,42.163928,-76.022943
15380,"Buffalo-Cheektowaga-Niagara Falls, NY",1601190,0.4525716952393679,0.1098109082481211,0.1677055031068924,0.032474410018069146,0.1425808738662853,43.044371,-78.777335
21300,"Elmira, NY",104170,0.46555592616822994,0.10295939930626384,0.179437220025798,0.030059732161323155,0.15309957467484495,42.15528,-76.747179
24020,"Glens Falls, NY",151280,0.45778339630030984,0.10175048595373289,0.17250885795162524,0.028776514093261013,0.15474753830169072,43.44045,-73.636757
27060,"Ithaca, NY",135440,0.45069954630642217,0.11871725537825269,0.1601172202548519,0.037318122247100044,0.13454694842621753,42.453006,-76.473483
28740,"Kingston, NY",170550,0.46126438493843425,0.11136244454467913,0.16566301636904632,0.031370478210683506,0.1528684458140253,41.947212,-74.265458
35620,"New York-Newark-Jersey City, NY-NJ-PA",24802090,0.45380743384193467,0.11754959791157726,0.1612962922390516,0.03700849756550528,0.1379530461258005,40.898788,-73.90313
40380,"Rochester, NY",1481390,0.4518727734350625,0.10782839183632678,0.16536796441350257,0.036103245066656874,0.14257317211857626,43.148038,-77.523257
45060,"Syracuse, NY",918860,0.45692503266326034,0.10803884048311435,0.16951337207937528,0.032803330185212434,0.1465694899155583,43.006516,-76.196134
46540,"Utica-Rome, NY",372000,0.4556214900988561,0.10913908475699476,0.16969297412980391,0.032350999944476946,0.1444384312675805,43.33228,-75.173189
10420,"Akron, OH",989030,0.45431313093045544,0.10486411477851464,0.1716759892603901,0.03169607804548737,0.14607694884606334,41.146639,-81.35011
15940,"Canton-Massillon, OH",506280,0.45716925523357166,0.09812454361399484,0.1763909890549112,0.028093910843267296,0.15455981172139835,40.711072,-81.261474
17140,"Cincinnati, OH-KY-IN",3077590,0.4538513328617504,0.10515230235410651,0.17078290529149012,0.03289226628347987,0.1450238589326739,39.069458,-84.427153
17460,"Cleveland-Elyria, OH",3137690,0.45515840501774485,0.10535422187480308,0.17266804184064768,0.03209435642027075,0.14504178488202338,41.760392,-81.724217
18140,"Columbus, OH",2773180,0.4525062350295184,0.10801674852295741,0.16866115613013727,0.034062560778818377,0.1417657695976054,39.968562,-82.835911
19380,"Dayton, OH",1153410,0.44930016865867295,0.10257727810719663,0.1699431313388309,0.03397103137351841,0.14280872783912701,39.828854,-84.141813
30620,"Lima, OH",149880,0.45576825160527334,0.09767523006147029,0.174237794502145,0.025110136202411704,0.15874509083924637,40.771627,-84.106103
31900,"Mansfield, OH",152560,0.4617132542987429,0.09683998530007337,0.17761873088238336,0.027815069168741074,0.159439468947545,40.774159,-82.542781
44220,"Springfield, OH",139510,0.4613234670511984,0.09640443545758604,0.17911584585098442,0.02564703113132036,0.16015615461130758,39.917032,-83.783676
45780,"Toledo, OH",931130,0.45363963804513563,0.09787818581734513,0.1732652587488234,0.029031015613978136,0.15346517786498895,41.544357,-83.690777
49660,"Youngstown-Warren-Boardman, OH-PA",685400,0.45228428197806214,0.09882260089978905,0.17128402251107944,0.02698280201345108,0.15519485655374254,41.23646,-80.561784
30020,"Lawton, OK",111010,0.4651641687821598,0.11441248061256842,0.172312657927937,0.027618609247379192,0.15082042099427526,34.52911,-98.430917
36420,"Oklahoma City, OK",1694650,0.4652540402263506,0.11249191257349281,0.17259913417349879,0.03346181126508038,0.14670118221427858,35.430968,-97.506966
46140,"Tulsa, OK",1287090,0.46738399611781467,0.10747065354312577,0.17697041886517664,0.03350069832604261,0.14944222538346966,36.254429,-96.177329
13460,"Bend-Redmond, OR",196240,0.45867567923283714,0.10880600451497079,0.16728106536673998,0.029043964009896457,0.1535446453412299,43.915118,-121.225575
18700,"Corvallis, OR",90690,0.4022734935001997,0.09764647779274568,0.1456288539811379,0.028912855564391146,0.13008530616192499,44.493882,-123.424664
21660,"Eugene, OR",438090,0.442128861112961,0.10065523616118048,0.16527325113430488,0.028942536552089428,0.14725783726538624,43.928329,-122.89769
32780,"Medford, OR",238840,0.4433615229376957,0.1053924993008779,0.1637982787062027,0.027005890320703732,0.1471648546099114,42.411628,-122.675685
38900,"Portland-Vancouver-Hillsboro, OR-WA",3093890,0.44580753791273053,0.10595305469456372,0.16413568041447793,0.03340886071998562,0.14230994208370332,45.60062,-122.484346
41420,"Salem, OR",442510,0.45289499625603413,0.10646194389622757,0.16720951011625437,0.02954461321626778,0.1496789290272844,44.903385,-122.901757
10900,"Allentown-Bethlehem-Easton, PA-NJ",1003360,0.4653873722458399,0.10797873578691236,0.17590729575449196,0.03111764726856564,0.15038369343586996,40.789339,-75.398158
11020,"Altoona, PA",168570,0.4712103820874949,0.10798605708353386,0.17779045149022726,0.02726997803078101,0.15816389548295273,40.497922,-78.310636
21500,"Erie, PA",374230,0.47052320656301216,0.10886201382361761,0.17635901694284958,0.03052083992438076,0.1547813358721642,42.117952,-80.096386
25420,"Harrisburg-Carlisle, PA",931630,0.4696477395327531,0.11458105027360578,0.17577614148581877,0.034366385128833776,0.14492416264449476,40.335915,-77.05049
27780,"Johnstown, PA",163880,0.4592699655518595,0.10858707797367143,0.17282238373506728,0.02809545101773331,0.1497650528253875,40.510222,-78.710478
29540,"Lancaster, PA",689240,0.4670428816745744,0.09924599687859705,0.18149724552483035,0.028186243508481586,0.1581133957626654,40.041992,-76.250198
30140,"Lebanon, PA",133750,0.4598056940702129,0.0952444694262161,0.17929466646989417,0.025294551876676216,0.15997200629742633,40.371559,-76.46487
37980,"Philadelphia-Camden-Wilmington, PA-NJ-DE-MD",8097200,0.45980354077837515,0.1158809700786358,0.1681338060454015,0.03541287043842348,0.14037589421591432,39.894936,-75.311955
38300,"Pittsburgh, PA",3323110,0.4643981460273111,0.11175399903018778,0.17247865700765946,0.03339538695429917,0.14677010303516472,40.434338,-79.828061
39740,"Reading, PA",489940,0.4692261037973454,0.10398749880879594,0.17948565195832672,0.029600379689861626,0.15615257334036112,40.413957,-75.92686
42540,"Scranton--Wilkes-Barre--Hazleton, PA",760600,0.4655578418586958,0.10619980036823776,0.17676800475810628,0.02926854025639819,0.1533214964759536,41.322881,-75.898188
44300,"State College, PA",181120,0.46832321589678777,0.10960842917504986,0.16690580625274903,0.0328089623330282,0.15900001813596065,40.909128,-77.847877
48700,"Williamsport, PA",144290,0.4718290927403906,0.10584606487511757,0.18234926341696475,0.027791797455017794,0.15584196699329045,41.343882,-77.055262
49620,"York-Hanover, PA",525950,0.4708335599617752,0.09507169791663343,0.186138726233317,0.02757673159496519,0.16204640421685954,39.921751,-76.728889
77200,"Providence-Warwick, RI-MA",1686440,0.453104647593469,0.10824649537540369,0.16621847863469158,0.032357229518169224,0.14628244406520455,41.706831,-71.286637
16700,"Charleston-North Charleston, SC",862900,0.4681199961242423,0.10705612537965875,0.173602473418636,0.032159385136364016,0.15530201218958356,33.021989,-80.012043
17900,"Columbia, SC",1033590,0.4620623217312618,0.10948948771211772,0.1728085184641816,0.03413244587472036,0.14563186968024217,34.077585,-81.037845
22500,"Florence, SC",242090,0.462289996617832,0.09937670133845962,0.17654578204752847,0.028721427983495168,0.15764608524834878,34.154902,-79.80759
24860,"Greenville-Anderson-Mauldin, SC",914860,0.4662184526094957,0.1047072738560489,0.179588288351587,0.03270247509642206,0.14922041530543773,34.683709,-82.413423
34820,"Myrtle Beach-Conway-North Myrtle Beach, SC-NC",348260,0.4733416627651641,0.1051106691964514,0.17349752658786183,0.023782705491290516,0.17095076148956032,33.969095,-78.612724
43900,"Spartanburg, SC",358070,0.4715257166369977,0.09273298400377747,0.19143593797149813,0.02910143688366856,0.15825535777805352,34.83462,-81.842401
44940,"Sumter, SC",100530,0.4725597226384611,0.09575504167000275,0.18408824930286263,0.02601626164462683,0.16670017002096887,33.91614,-80.382376
39660,"Rapid City, SD",174160,0.4733100146757122,0.10959622494053414,0.17446613273120173,0.029299979918937746,0.1599476770850386,44.195108,-102.916612
43620,"Sioux Falls, SD",397100,0.47119417849800316,0.11367067288148093,0.17857361970760188,0.032142305869977225,0.14680758003894312,43.49542,-96.995339
16860,"Chattanooga, TN-GA",689750,0.46168568834731677,0.10383560261092335,0.17785950001180806,0.028973719130302,0.15101686659428337,35.049361,-85.361158
17300,"Clarksville, TN-KY",219700,0.45833833934271256,0.10205613346176046,0.17624223026540392,0.028946536662863256,0.15109343895268496,36.749207,-87.558283
17420,"Cleveland, TN",100580,0.45814675250854947,0.09806550726147792,0.18039825359513506,0.026157789683825337,0.1535252019681112,35.138117,-84.655079
27180,"Jackson, TN",164600,0.4618976184443725,0.10068965268674829,0.17619352781892234,0.02672386952044902,0.1582905684182528,35.610937,-88.853902
27740,"Johnson City, TN",220560,0.45341546394298926,0.10269953226637808,0.1710606853282032,0.027169905718528106,0.1524853406298798,36.265822,-82.332693
28700,"Kingsport-Bristol-Bristol, TN-VA",339770,0.4644498502776052,0.09980331201905154,0.17962638855984564,0.02738326082018712,0.15763688887852093,36.604161,-82.440145
28940,"Knoxville, TN",988610,0.4633301299162555,0.10588686890350102,0.17421995120587408,0.030573251805437126,0.15265005800144327,36.044462,-84.136114
32820,"Memphis, TN-MS-AR",1858780,0.4582801819132262,0.09874876912390468,0.1732959745954433,0.02903607278431613,0.15719936540956214,35.008557,-89.821816
34100,"Morristown, TN",134930,0.47377192782804045,0.08496483268896005,0.19733079535863401,0.0237634153608021,0.1677128844196443,36.115484,-83.376546
34980,"Nashville-Davidson--Murfreesboro--Franklin, TN",2289810,0.46056834138935526,0.10729526033274649,0.1713599332771932,0.0316844794113285,0.15022866836808707,36.091577,-86.72298
10180,"Abilene, TX",177510,0.4644121325319243,0.11160746269236062,0.16933969116814393,0.028591472699959895,0.15487350597145988,32.452022,-99.718743
11100,"Amarillo, TX",307100,0.4694938941950358,0.1134215018968743,0.17468315333063933,0.028798403545682527,0.15259083542183965,35.247897,-101.908638
12420,"Austin-Round Rock, TX",2235220,0.462973369777598,0.12251040701887517,0.16218051299878947,0.04275277451972339,0.13552967524021003,30.239513,-97.69127
13140,"Beaumont-Port Arthur, TX",466340,0.45835339710076706,0.09708295792111107,0.17215445639711396,0.028415286729928914,0.16070069605261308,30.347833,-94.120371
15180,"Brownsville-Harlingen, TX",359090,0.4594438735255993,0.10737786292978517,0.15932596794901807,0.0272670981547993,0.1654729444919968,26.102923,-97.478958
17780,"College Station-Bryan, TX",250230,0.465999414189008,0.11641588320724729,0.1703728779819263,0.030975881136545126,0.14823477186328926,30.754392,-96.488537
18580,"Corpus Christi, TX",504720,0.45896048835528,0.10575721072688127,0.1681645625432603,0.028423798070061297,0.1566149170150772,27.898931,-97.401236
19100,"Dallas-Fort Worth-Arlington, TX",8633310,0.4614693226503044,0.11242062259933364,0.1700619391496721,0.03548048750472005,0.14350627339657854,32.822558,-97.025131
21340,"El Paso, TX",794590,0.4546695437404752,0.10692826515714703,0.1643269876422411,0.030109546707935773,0.1533047442331513,31.527394,-105.521333
26420,"Houston-The Woodlands-Sugar Land, TX",7572060,0.45918787604537653,0.10601288319927411,0.171220106391047,0.03402200172852653,0.14793288472652888,29.749593,-95.353642
28660,"Killeen-Temple, TX",349400,0.4513987325034579,0.10420997443705377,0.1637325954731697,0.03070178554119817,0.15275437705203626,31.20273,-97.789638
29700,"Laredo, TX",249300,0.47023550210616183,0.10973711951637871,0.17078264392758097,0.02339396701419834,0.1663217716480038,27.760799,-99.340752
30980,"Longview, TX",273060,0.4718078773041958,0.10056805010731426,0.17926775247602889,0.028088273167594997,0.16388380155325766,32.364601,-94.819897
31180,"Lubbock, TX",353570,0.46178364056259724,0.11639515975156209,0.16330457666428932,0.030816801702274924,0.15126710244447092,33.470327,-101.648825
32580,"McAllen-Edinburg-Mission, TX",643640,0.4624782839059772,0.10875329622047511,0.15939209244264135,0.02795193736332053,0.16638095787954027,26.396384,-98.18099
33260,"Midland, TX",192850,0.4699309081346956,0.10982989830402674,0.17914385647674266,0.029381534259705824,0.15157561909422038,32.092359,-101.994539
36220,"Odessa, TX",167490,0.4615118827483403,0.10111320773063179,0.17742397645122107,0.023819575553175876,0.15915512301331158,31.865301,-102.542507
41660,"San Angelo, TX",121080,0.46301550398629693,0.10976825152207162,0.16732859991591134,0.02930908513576789,0.15660956741254606,31.36531,-100.659418
41700,"San Antonio-New Braunfels, TX",2502590,0.4590453716174634,0.1120984774975531,0.16611616713466745,0.03272834075826256,0.14810238622698024,29.43306,-98.606973
43300,"Sherman-Denison, TX",113920,0.4639518714386139,0.10957237776025186,0.17435679678214672,0.02753591194635842,0.1524867849498569,33.624524,-96.675693
45500,"Texarkana, TX-AR",153320,0.4600375344047237,0.09915202774307387,0.17278939436022803,0.02551732547420779,0.16257878682721402,33.47837,-94.207169
46340,"Tyler, TX",261240,0.4679327476435284,0.11026549454585839,0.1727444879230202,0.029582825282885625,0.15533993989176414,32.375105,-95.268939
47020,"Victoria, TX",136050,0.4703262566836466,0.10385593418475525,0.1764344001391241,0.02813263799263676,0.16190328436713045,28.731455,-97.196993
47380,"Waco, TX",282350,0.4628966559208522,0.10659137709139903,0.1737437425438088,0.029422937322790183,0.1531385989628542,31.427226,-97.093473
48660,"Wichita Falls, TX",165340,0.4615188569227592,0.10203550123090856,0.1746126973062046,0.027170134849530077,0.15770052353611597,33.776144,-98.501907
30860,"Logan, UT-ID",135470,0.4603700017154523,0.10439505879998753,0.17372588190065877,0.029502430032835227,0.1527466309819708,41.883617,-111.784324
36260,"Ogden-Clearfield, UT",592280,0.45312663848152257,0.10091398286740563,0.16970904343343068,0.030801902968437746,0.15170170921224846,41.300466,-113.126808
39340,"Provo-Orem, UT",512660,0.46363799635340913,0.10658295811390717,0.17205075150542595,0.033012263899058224,0.15199202283501784,39.872067,-112.359059
41100,"St. George, UT",144550,0.46806674310617796,0.10774832743944451,0.16984345602334674,0.024007838010067235,0.1664671216333195,37.262531,-113.4878
41620,"Salt Lake City, UT",1875930,0.4612402021812458,0.11463617860689085,0.17041274488207503,0.03466964355629732,0.1415216351359826,40.572887,-112.953253
13980,"Blacksburg-Christiansburg-Radford, VA",181400,0.45708674610554784,0.1017474493711752,0.1739247258458157,0.03150646300176148,0.14990810788679548,37.121364,-80.531517
16820,"Charlottesville, VA",277440,0.4537197025084441,0.11379242916983205,0.16385596020543725,0.03469611042480597,0.14137520270836884,37.85459,-78.578282
25500,"Harrisonburg, VA",165500,0.4660356918098286,0.09679514402884956,0.1853487312157367,0.02228066852998871,0.16161114803525362,38.507585,-78.885321
31340,"Lynchburg, VA",294460,0.457703404392001,0.09951334624125532,0.17444709692226024,0.02864109994094733,0.15510186128753817,37.364926,-79.216689
40060,"Richmond, VA",1785990,0.4568199910142797,0.109536975172631,0.16856581695629633,0.03385502484642401,0.1448621740389284,37.460057,-77.473869
40220,"Roanoke, VA",458590,0.4557024830065039,0.10159921931433044,0.17524589621145298,0.02773737516513009,0.15111999231559042,37.286226,-79.946935
47260,"Virginia Beach-Norfolk-Newport News, VA-NC",2249310,0.4509201841063658,0.10396417795210117,0.16776876855145004,0.03176833836765845,0.1474188992351562,36.856081,-76.373791
49020,"Winchester, VA-WV",152560,0.4626186566611115,0.10088497404900668,0.17867069335496125,0.024921047963518225,0.15814194129362535,39.272974,-78.471828
72400,"Burlington-South Burlington, VT",326360,0.46306289254864225,0.11569713158634413,0.166301325588659,0.036902641359679106,0.14416179401395995,44.689117,-73.041171
13380,"Bellingham, WA",230080,0.46131650780501776,0.10493682996871886,0.1717875704359606,0.02770331289294638,0.15688879450739193,48.842653,-121.836432
14740,"Bremerton-Silverdale, WA",238660,0.4450542736804267,0.10292042320225066,0.16213885697524044,0.030154910503358758,0.14984008299957685,47.639687,-122.649636
28420,"Kennewick-Richland, WA",260580,0.45539520574604936,0.10072415834336645,0.17012286119310058,0.03248490971117207,0.15206327649841023,46.363964,-119.254046
31020,"Longview, WA",97720,0.4530831965055051,0.10012569198665927,0.1693030279709357,0.0250347132396894,0.15861976330822072,46.196785,-122.67846
34580,"Mount Vernon-Anacortes, WA",127750,0.4657700689667874,0.10501150327765896,0.17505740326240432,0.026561280457644425,0.15913988196907966,48.493292,-121.81577
36500,"Olympia-Tumwater, WA",275920,0.44449646234767276,0.11563234591722925,0.16081166266802355,0.03487236867495082,0.13318008508746915,46.935822,-122.830152
42660,"Seattle-Tacoma-Bellevue, WA",4991180,0.4518723975155776,0.10824552602329343,0.16592916226230717,0.03617028411884268,0.1415274251111344,47.490599,-121.833996
44060,"Spokane-Spokane Valley, WA",616940,0.45359777452857164,0.10789669797048708,0.16706722074267796,0.029711361935681968,0.14892249387972464,48.189041,-117.573219
48300,"Wenatchee, WA",113260,0.46104364982271295,0.09834679965868535,0.17562367943402976,0.024343272260968576,0.16272989846902933,47.76611,-120.270197
49420,"Yakima, WA",231430,0.45701258991727134,0.09470876354302935,0.17698729518756423,0.025739678516946515,0.1595768526697313,46.456558,-120.740145
11540,"Appleton, WI",341270,0.45626101144780856,0.09869581161473964,0.17612725635153317,0.02868691620415808,0.15275102727737766,44.290603,-88.372326
20740,"Eau Claire, WI",224280,0.4579495099029603,0.10098005073367265,0.17346501307311324,0.02910720018881864,0.15439724590735576,44.938672,-91.284322
22540,"Fond du Lac, WI",125730,0.46459740107920566,0.08847758661761514,0.19234455531577732,0.021904240762901626,0.16187101838291157,43.754722,-88.493284
24580,"Green Bay, WI",487590,0.4566064157771163,0.09884883928172523,0.17848563117184585,0.029165591610175977,0.15010635371336928,44.474024,-87.99613
27500,"Janesville-Beloit, WI",187950,0.4649588302046902,0.09938145139140585,0.1774373804199701,0.026748197643865657,0.16139180074944856,42.66988,-89.075284
29100,"La Crosse-Onalaska, WI-MN",201590,0.4541731617977364,0.1086702166511998,0.16728666474907553,0.02960887036264602,0.1486074100348151,43.783246,-91.318743
31540,"Madison, WI",995180,0.4499733701469718,0.11011283519796639,0.16812877911973212,0.034909262806051805,0.13682249302322147,43.084294,-89.59718
33340,"Milwaukee-Waukesha-West Allis, WI",2516630,0.45571088040269914,0.10408219019259204,0.1742484065946261,0.03288292073364226,0.14449736288183876,43.01766,-87.481554
36780,"Oshkosh-Neenah, WI",252620,0.45676133110794226,0.09977257645605045,0.17877054542161663,0.030461439683824865,0.14775676954645034,44.085707,-88.668149
39540,"Racine, WI",220750,0.4613786247755728,0.10040847464107595,0.1791217252865812,0.028878980296171898,0.15296944455174372,42.754122,-87.420877
43100,"Sheboygan, WI",168680,0.46692634651077664,0.08835502533189135,0.19213616297875366,0.02659561158921298,0.15983954661091865,43.741232,-87.731516
48140,"Wausau, WI",197250,0.4645093799798825,0.09921803196283524,0.1842225503472235,0.027598756440636925,0.15347004122918684,44.898036,-89.757823
16620,"Charleston, WV",426740,0.45947815939479153,0.11052734500854725,0.17167693329479441,0.028877845630841233,0.14839603546060867,38.283213,-81.492557
26580,"Huntington-Ashland, WV-KY-OH",326040,0.46242724123402046,0.10637787600673529,0.1717113075570272,0.02810116816819974,0.15623688950205822,38.373691,-82.385193
34060,"Morgantown, WV",147830,0.4587956464158948,0.10365321082586576,0.17182191147075465,0.024271679340249985,0.15904884477902442,39.525155,-79.801912
37620,"Parkersburg-Vienna, WV",200510,0.46332270888318006,0.10428741322019063,0.17589431012065232,0.027218663520440292,0.1559223220218968,39.141531,-81.460402
48260,"Weirton-Steubenville, WV-OH",122490,0.45507257729404665,0.09634490201605586,0.17378212512693267,0.024477545369503542,0.1604680047815546,40.388914,-80.701966
48540,"Wheeling, WV-OH",182110,0.4642213870197636,0.11173645574842139,0.16838258119939006,0.027126219424380878,0.15697613064757127,39.975509,-80.847011
16220,"Casper, WY",109670,0.45430138108764206,0.09986875562213422,0.17297428936556336,0.02541830664948975,0.15604002945045475,42.977645,-106.768219
16940,"Cheyenne, WY",122540,0.4535948475212862,0.1034341461406707,0.16677777766764273,0.03031799312553357,0.1530649305874392,41.29283,-104.660395
